#version,serial,flight,call,time,state,state_name,acceleration,pressure,altitude,height,speed,temperature,drogue_voltage,main_voltage,battery_voltage,accel_x,accel_y,accel_z,gyro_roll,gyro_pitch,gyro_yaw,mag_x,mag_y,mag_z,tilt,pyro,igniter_a,igniter_b,igniter_c,igniter_d,connected,locked,nsat,latitude,longitude,altitude,year,month,day,hour,minute,second,pad_dist,pad_range,pad_az,pad_el,pdop,hdop,vdop,sat01,sat02,sat03,sat04,sat05,sat06,sat07,sat08,sat09,sat10,sat11,sat12,sat13,sat14,sat15,sat16,sat17,sat18,sat19,sat20,sat21,sat22,sat23,sat24,sat25,sat26,sat27,sat28,sat29,sat30,sat31,sat32
6,16370,1,KJ5LDI,-0.3,3,   boost,0,97005,365.98,-0.52,0,35,4.14,4.14,4.13,9.97,0.13,0.93,-0.03,-0.22,-0.27,0.66,-0.03,0.27,5.3,4.14,0,0,0,0,1,1,15,33.4986968,-99.3329858,415,2026,5,24,16,29,39,0,0,155,0,0.9,0.5,0.8,0,29,0,0,28,35,0,0,32,0,30,36,0,0,0,0,0,0,28,0,22,0,0,35,21,0,0,0,27,0,0,0
6,16370,1,KJ5LDI,-0.29,3,   boost,-2.51,97005,365.98,-0.52,0,35,4.14,4.14,4.13,10,0.18,0.93,-0.15,0.03,-0.03,0.66,-0.03,0.28,5.3,4.14,0,0,0,0,1,1,15,33.4986968,-99.3329858,415,2026,5,24,16,29,39,0,0,155,0,0.9,0.5,0.8,0,29,0,0,28,35,0,0,32,0,30,36,0,0,0,0,0,0,28,0,22,0,0,35,21,0,0,0,27,0,0,0
6,16370,1,KJ5LDI,-0.28,3,   boost,0.5,97006,365.89,-0.6,0,35,4.14,4.14,4.13,9.97,0.17,0.91,0.22,-0.16,0.09,0.66,-0.03,0.27,5.3,4.14,0,0,0,0,1,1,15,33.4986968,-99.3329858,415,2026,5,24,16,29,39,0,0,155,0,0.9,0.5,0.8,0,29,0,0,28,35,0,0,32,0,30,36,0,0,0,0,0,0,28,0,22,0,0,35,21,0,0,0,27,0,0,0
6,16370,1,KJ5LDI,-0.27,3,   boost,-1.01,97006,365.89,-0.6,0,35,4.14,4.14,4.13,10.01,0.15,0.95,0.03,-0.28,0.03,0.66,-0.03,0.27,5.3,4.14,0,0,0,0,1,1,15,33.4986968,-99.3329858,415,2026,5,24,16,29,39,0,0,155,0,0.9,0.5,0.8,0,29,0,0,28,35,0,0,32,0,30,36,0,0,0,0,0,0,28,0,22,0,0,35,21,0,0,0,27,0,0,0
6,16370,1,KJ5LDI,-0.26,3,   boost,-0.5,97006,365.89,-0.6,0,35,4.14,4.14,4.13,10.03,0.19,0.89,-0.09,0.15,0.09,0.66,-0.03,0.27,5.3,4.14,0,0,0,0,1,1,15,33.4986968,-99.3329858,415,2026,5,24,16,29,39,0,0,155,0,0.9,0.5,0.8,0,29,0,0,28,35,0,0,32,0,30,36,0,0,0,0,0,0,28,0,22,0,0,35,21,0,0,0,27,0,0,0
6,16370,1,KJ5LDI,-0.25,3,   boost,0.5,97006,365.89,-0.6,0,35,4.14,4.14,4.13,9.99,0.17,0.88,-0.03,0.03,-0.21,0.66,-0.03,0.27,5.3,4.14,0,0,0,0,1,1,15,33.4986968,-99.3329858,415,2026,5,24,16,29,39,0,0,155,0,0.9,0.5,0.8,0,29,0,0,28,35,0,0,32,0,30,36,0,0,0,0,0,0,28,0,22,0,0,35,21,0,0,0,27,0,0,0
6,16370,1,KJ5LDI,-0.24,3,   boost,0,96994,366.93,0.43,0,35,4.14,4.14,4.13,9.99,0.16,0.91,0.15,0.03,-0.15,0.66,-0.03,0.28,5.3,4.14,0,0,0,0,1,1,15,33.4986968,-99.3329858,415,2026,5,24,16,29,39,0,0,155,0,0.9,0.5,0.8,0,29,0,0,28,35,0,0,32,0,30,36,0,0,0,0,0,0,28,0,22,0,0,35,21,0,0,0,27,0,0,0
6,16370,1,KJ5LDI,-0.23,3,   boost,0,96994,366.93,0.43,0,35,4.14,4.14,4.13,10.01,0.13,0.93,-0.27,0.27,-0.09,0.66,-0.03,0.27,5.3,4.14,0,0,0,0,1,1,15,33.4986968,-99.3329858,415,2026,5,24,16,29,39,0,0,155,0,0.9,0.5,0.8,0,29,0,0,28,35,0,0,32,0,30,36,0,0,0,0,0,0,28,0,22,0,0,35,21,0,0,0,27,0,0,0
6,16370,1,KJ5LDI,-0.22,3,   boost,-0.5,97003,366.15,-0.34,0,35,4.14,4.14,4.13,9.99,0.12,0.92,0.15,0.39,-0.15,0.66,-0.03,0.27,5.3,4.14,0,0,0,0,1,1,15,33.4986968,-99.3329858,415,2026,5,24,16,29,39,0,0,155,0,0.9,0.5,0.8,0,29,0,0,28,35,0,0,32,0,30,36,0,0,0,0,0,0,28,0,22,0,0,35,21,0,0,0,27,0,0,0
6,16370,1,KJ5LDI,-0.21,3,   boost,-1.51,97003,366.15,-0.34,0,35,4.14,4.14,4.13,10.01,0.14,0.89,-0.15,0.03,-0.03,0.66,-0.03,0.27,5.3,4.14,0,0,0,0,1,1,15,33.4986968,-99.3329858,415,2026,5,24,16,29,39,0,0,155,0,0.9,0.5,0.8,0,29,0,0,28,35,0,0,32,0,30,36,0,0,0,0,0,0,28,0,22,0,0,35,21,0,0,0,27,0,0,0
6,16370,1,KJ5LDI,-0.2,3,   boost,-0.5,97000,366.41,-0.09,0,35,4.14,4.14,4.13,9.96,0.17,0.92,0.03,-0.09,-0.03,0.66,-0.03,0.28,5.3,4.14,0,0,0,0,1,1,15,33.4986968,-99.3329858,415,2026,5,24,16,29,39,0,0,155,0,0.9,0.5,0.8,0,29,0,0,28,35,0,0,32,0,30,36,0,0,0,0,0,0,28,0,22,0,0,35,21,0,0,0,27,0,0,0
6,16370,1,KJ5LDI,-0.19,3,   boost,0,97000,366.41,-0.09,0,35,4.14,4.14,4.13,10.02,0.16,0.93,-0.21,-0.28,-0.34,0.66,-0.03,0.27,5.3,4.14,0,0,0,0,1,1,15,33.4986968,-99.3329858,415,2026,5,24,16,29,39,0,0,155,0,0.9,0.5,0.8,0,29,0,0,28,35,0,0,32,0,30,36,0,0,0,0,0,0,28,0,22,0,0,35,21,0,0,0,27,0,0,0
6,16370,1,KJ5LDI,-0.18,3,   boost,0.5,96996,366.75,0.26,0,35,4.14,4.14,4.13,10.01,0.16,0.87,0.28,-0.28,0.15,0.66,-0.03,0.27,5.3,4.14,0,0,0,0,1,1,15,33.4986968,-99.3329858,415,2026,5,24,16,29,39,0,0,155,0,0.9,0.5,0.8,0,29,0,0,28,35,0,0,32,0,30,36,0,0,0,0,0,0,28,0,22,0,0,35,21,0,0,0,27,0,0,0
6,16370,1,KJ5LDI,-0.17,3,   boost,-1.01,96996,366.75,0.26,0,35,4.14,4.14,4.13,10.01,0.14,0.92,-0.09,-0.16,0.03,0.66,-0.03,0.27,5.3,4.14,0,0,0,0,1,1,15,33.4986968,-99.3329858,415,2026,5,24,16,29,39,0,0,155,0,0.9,0.5,0.8,0,29,0,0,28,35,0,0,32,0,30,36,0,0,0,0,0,0,28,0,22,0,0,35,21,0,0,0,27,0,0,0
6,16370,1,KJ5LDI,-0.16,3,   boost,1.01,96998,366.58,0.09,0,35,4.14,4.14,4.13,10.01,0.15,0.96,0.15,0.03,0.09,0.66,-0.03,0.27,5.3,4.14,0,0,0,0,1,1,15,33.4986968,-99.3329858,415,2026,5,24,16,29,39,0,0,155,0,0.9,0.5,0.8,0,29,0,0,28,35,0,0,32,0,30,36,0,0,0,0,0,0,28,0,22,0,0,35,21,0,0,0,27,0,0,0
6,16370,1,KJ5LDI,-0.15,3,   boost,1.01,96998,366.58,0.09,0,35,4.14,4.14,4.13,10.05,0.21,0.91,0.22,-0.09,-0.09,0.66,-0.03,0.27,5.3,4.14,0,0,0,0,1,1,15,33.4986968,-99.3329858,415,2026,5,24,16,29,39,0,0,155,0,0.9,0.5,0.8,0,29,0,0,28,35,0,0,32,0,30,36,0,0,0,0,0,0,28,0,22,0,0,35,21,0,0,0,27,0,0,0
6,16370,1,KJ5LDI,-0.14,3,   boost,0.5,96999,366.5,0,0,35,4.14,4.14,4.13,9.99,0.11,0.91,-0.03,-0.09,0.15,0.66,-0.03,0.27,5.3,4.14,0,0,0,0,1,1,15,33.4986968,-99.3329858,415,2026,5,24,16,29,39,0,0,155,0,0.9,0.5,0.8,0,29,0,0,28,35,0,0,32,0,30,36,0,0,0,0,0,0,28,0,22,0,0,35,21,0,0,0,27,0,0,0
6,16370,1,KJ5LDI,-0.13,3,   boost,-1.51,96999,366.5,0,0,35,4.14,4.14,4.13,10.03,0.16,0.88,0.15,0.21,-0.09,0.66,-0.03,0.27,5.3,4.14,0,0,0,0,1,1,15,33.4986968,-99.3329858,415,2026,5,24,16,29,39,0,0,155,0,0.9,0.5,0.8,0,29,0,0,28,35,0,0,32,0,30,36,0,0,0,0,0,0,28,0,22,0,0,35,21,0,0,0,27,0,0,0
6,16370,1,KJ5LDI,-0.12,3,   boost,0.5,96992,367.1,0.6,0,35,4.14,4.14,4.13,10.02,0.18,0.94,0.22,0.09,-0.15,0.66,-0.03,0.27,5.3,4.14,0,0,0,0,1,1,15,33.4986968,-99.3329858,415,2026,5,24,16,29,39,0,0,155,0,0.9,0.5,0.8,0,29,0,0,28,35,0,0,32,0,30,36,0,0,0,0,0,0,28,0,22,0,0,35,21,0,0,0,27,0,0,0
6,16370,1,KJ5LDI,-0.11,3,   boost,-0.5,96992,367.1,0.6,0,35,4.14,4.14,4.13,9.99,0.17,0.92,0.28,-0.22,-0.15,0.66,-0.03,0.28,5.3,4.14,0,0,0,0,1,1,15,33.4986968,-99.3329858,415,2026,5,24,16,29,39,0,0,155,0,0.9,0.5,0.8,0,29,0,0,28,35,0,0,32,0,30,36,0,0,0,0,0,0,28,0,22,0,0,35,21,0,0,0,27,0,0,0
6,16370,1,KJ5LDI,-0.1,3,   boost,0,97010,365.55,-0.95,0,35,4.14,4.14,4.13,10,0.19,0.86,0.15,-0.22,0.03,0.66,-0.03,0.27,5.3,4.14,0,0,0,0,1,1,15,33.4986975,-99.3329862,415,2026,5,24,16,29,40,0,0,0,0,0.9,0.5,0.8,0,27,0,0,27,33,0,0,31,0,29,35,0,0,0,0,0,0,27,0,21,0,0,33,20,0,0,0,26,0,0,0
6,16370,1,KJ5LDI,-0.09,3,   boost,0,97010,365.55,-0.95,0.01,35,4.14,4.14,4.13,10.02,0.19,0.89,0.4,0.15,0.15,0.66,-0.03,0.27,5.3,4.14,0,0,0,0,1,1,15,33.4986975,-99.3329862,415,2026,5,24,16,29,40,0,0,0,0,0.9,0.5,0.8,0,27,0,0,27,33,0,0,31,0,29,35,0,0,0,0,0,0,27,0,21,0,0,33,20,0,0,0,26,0,0,0
6,16370,1,KJ5LDI,-0.08,3,   boost,0,97003,366.15,-0.34,0.05,35,4.14,4.14,4.13,10,0.2,0.89,0.58,-0.03,-0.03,0.66,-0.03,0.27,5.3,4.14,0,0,0,0,1,1,15,33.4986975,-99.3329862,415,2026,5,24,16,29,40,0,0,0,0,0.9,0.5,0.8,0,27,0,0,27,33,0,0,31,0,29,35,0,0,0,0,0,0,27,0,21,0,0,33,20,0,0,0,26,0,0,0
6,16370,1,KJ5LDI,-0.07,3,   boost,1.01,97003,366.15,-0.34,0.19,35,4.14,4.14,4.13,10.36,0.02,0.95,0.64,0.15,0.03,0.66,-0.03,0.27,5.3,4.14,0,0,0,0,1,1,15,33.4986975,-99.3329862,415,2026,5,24,16,29,40,0,0,0,0,0.9,0.5,0.8,0,27,0,0,27,33,0,0,31,0,29,35,0,0,0,0,0,0,27,0,21,0,0,33,20,0,0,0,26,0,0,0
6,16370,1,KJ5LDI,-0.06,3,   boost,13.58,96998,366.58,0.09,0.48,35,4.14,4.14,4.13,11.57,0.22,0.42,0.03,-0.03,0.09,0.66,-0.03,0.27,5.3,4.14,0,0,0,0,1,1,15,33.4986975,-99.3329862,415,2026,5,24,16,29,40,0,0,0,0,0.9,0.5,0.8,0,27,0,0,27,33,0,0,31,0,29,35,0,0,0,0,0,0,27,0,21,0,0,33,20,0,0,0,26,0,0,0
6,16370,1,KJ5LDI,-0.05,3,   boost,64.87,96998,366.58,0.09,0.97,35,4.14,4.14,4.13,13.81,0.89,0.25,0.22,0.45,0.4,0.66,-0.03,0.27,5.3,4.14,0,0,0,0,1,1,15,33.4986975,-99.3329862,415,2026,5,24,16,29,40,0,0,0,0,0.9,0.5,0.8,0,27,0,0,27,33,0,0,31,0,29,35,0,0,0,0,0,0,27,0,21,0,0,33,20,0,0,0,26,0,0,0
6,16370,1,KJ5LDI,-0.04,3,   boost,115.17,97078,359.69,-6.81,1.69,35,4.14,4.14,4.13,87.46,0.25,2.12,-2.41,0.33,-0.52,0.66,-0.04,0.27,5.3,4.14,0,0,0,0,1,1,15,33.4986975,-99.3329862,415,2026,5,24,16,29,40,0,0,0,0,0.9,0.5,0.8,0,27,0,0,27,33,0,0,31,0,29,35,0,0,0,0,0,0,27,0,21,0,0,33,20,0,0,0,26,0,0,0
6,16370,1,KJ5LDI,-0.03,3,   boost,119.69,97078,359.69,-6.81,2.61,35,4.14,4.14,4.13,120.97,1.97,1.28,-4.12,1.61,0.15,0.66,-0.04,0.27,5.3,4.14,0,0,0,0,1,1,15,33.4986975,-99.3329862,415,2026,5,24,16,29,40,0,0,0,0,0.9,0.5,0.8,0,27,0,0,27,33,0,0,31,0,29,35,0,0,0,0,0,0,27,0,21,0,0,33,20,0,0,0,26,0,0,0
6,16370,1,KJ5LDI,-0.02,3,   boost,114.66,97048,362.27,-4.22,3.64,35,4.14,4.14,4.13,122.72,2.55,0.18,-3.45,-1.56,0.82,0.65,-0.04,0.27,5.3,4.14,0,0,0,0,1,1,15,33.4986975,-99.3329862,415,2026,5,24,16,29,40,0,0,0,0,0.9,0.5,0.8,0,27,0,0,27,33,0,0,31,0,29,35,0,0,0,0,0,0,27,0,21,0,0,33,20,0,0,0,26,0,0,0
6,16370,1,KJ5LDI,-0.01,3,   boost,114.66,97048,362.27,-4.22,4.74,35,4.14,4.14,4.13,122.59,2.69,0.4,9.86,-1.32,-0.46,0.64,-0.04,0.27,5.3,4.14,0,0,0,0,1,1,15,33.4986975,-99.3329862,415,2026,5,24,16,29,40,0,0,0,0,0.9,0.5,0.8,0,27,0,0,27,33,0,0,31,0,29,35,0,0,0,0,0,0,27,0,21,0,0,33,20,0,0,0,26,0,0,0
6,16370,1,KJ5LDI,0,3,   boost,108.12,97010,365.55,-0.95,5.83,35,4.14,4.14,4.13,119.65,0.32,1.62,10.9,-1.56,0.09,0.64,-0.04,0.27,5.3,4.14,0,0,0,0,1,1,15,33.4986975,-99.3329862,415,2026,5,24,16,29,40,0,0,0,0,0.9,0.5,0.8,0,27,0,0,27,33,0,0,31,0,29,35,0,0,0,0,0,0,27,0,21,0,0,33,20,0,0,0,26,0,0,0
6,16370,1,KJ5LDI,0,3,   boost,108.12,97010,365.55,-0.95,5.83,35,4.14,4.14,4.13,119.65,0.32,1.62,10.9,-1.56,0.09,0.64,-0.04,0.27,5.3,4.14,0,0,0,0,1,1,15,33.4986975,-99.3329862,415,2026,5,24,16,29,40,0,0,0,0,0.9,0.5,0.8,0,27,0,0,27,33,0,0,31,0,29,35,0,0,0,0,0,0,27,0,21,0,0,33,20,0,0,0,26,0,0,0
6,16370,1,KJ5LDI,0,3,   boost,108.12,97010,365.55,-0.95,5.83,35,4.14,4.14,4.13,119.65,0.32,1.62,10.9,-1.56,0.09,0.64,-0.04,0.27,5.3,4.14,0,0,0,0,1,1,15,33.4986975,-99.3329862,415,2026,5,24,16,29,40,0,0,0,0,0.9,0.5,0.8,0,27,0,0,27,33,0,0,31,0,29,35,0,0,0,0,0,0,27,0,21,0,0,33,20,0,0,0,26,0,0,0
6,16370,1,KJ5LDI,0,3,   boost,108.12,97010,365.55,-0.95,5.83,35,4.14,4.14,4.13,119.65,0.32,1.62,10.9,-1.56,0.09,0.64,-0.04,0.27,5.3,4.14,0,0,0,0,1,1,15,33.4986975,-99.3329862,415,2026,5,24,16,29,40,0,0,0,0,0.9,0.5,0.8,0,27,0,0,27,33,0,0,31,0,29,35,0,0,0,0,0,0,27,0,21,0,0,33,20,0,0,0,26,0,0,0
6,16370,1,KJ5LDI,0,3,   boost,108.12,97010,365.55,-0.95,5.83,35,4.14,4.14,4.13,119.65,0.32,1.62,10.9,-1.56,0.09,0.64,-0.04,0.27,5.3,4.14,0,0,0,0,1,1,15,33.4986975,-99.3329862,415,2026,5,24,16,29,40,0,0,0,0,0.9,0.5,0.8,0,27,0,0,27,33,0,0,31,0,29,35,0,0,0,0,0,0,27,0,21,0,0,33,20,0,0,0,26,0,0,0
6,16370,1,KJ5LDI,0,3,   boost,108.12,97010,365.55,-0.95,5.83,35,4.14,4.14,4.13,119.65,0.32,1.62,10.9,-1.56,0.09,0.64,-0.04,0.27,5.3,4.14,0,0,0,0,1,1,15,33.4986975,-99.3329862,415,2026,5,24,16,29,40,0,0,0,0,0.9,0.5,0.8,0,27,0,0,27,33,0,0,31,0,29,35,0,0,0,0,0,0,27,0,21,0,0,33,20,0,0,0,26,0,0,0
6,16370,1,KJ5LDI,0,3,   boost,108.12,97010,365.55,-0.95,5.83,35,4.14,4.14,4.13,119.65,0.32,1.62,10.9,-1.56,0.09,0.64,-0.04,0.27,5.3,4.14,0,0,0,0,1,1,15,33.4986975,-99.3329862,415,2026,5,24,16,29,40,0,0,0,0,0.9,0.5,0.8,0,27,0,0,27,33,0,0,31,0,29,35,0,0,0,0,0,0,27,0,21,0,0,33,20,0,0,0,26,0,0,0
6,16370,1,KJ5LDI,0,3,   boost,108.12,97010,365.55,-0.95,5.83,35,4.14,4.14,4.13,119.65,0.32,1.62,10.9,-1.56,0.09,0.64,-0.04,0.27,5.3,4.14,0,0,0,0,1,1,15,33.4986975,-99.3329862,415,2026,5,24,16,29,40,0,0,0,0,0.9,0.5,0.8,0,27,0,0,27,33,0,0,31,0,29,35,0,0,0,0,0,0,27,0,21,0,0,33,20,0,0,0,26,0,0,0
6,16370,1,KJ5LDI,0,3,   boost,108.12,97010,365.55,-0.95,5.83,35,4.14,4.14,4.13,119.65,0.32,1.62,10.9,-1.56,0.09,0.64,-0.04,0.27,5.3,4.14,0,0,0,0,1,1,15,33.4986975,-99.3329862,415,2026,5,24,16,29,40,0,0,0,0,0.9,0.5,0.8,0,27,0,0,27,33,0,0,31,0,29,35,0,0,0,0,0,0,27,0,21,0,0,33,20,0,0,0,26,0,0,0
6,16370,1,KJ5LDI,0,3,   boost,108.12,97010,365.55,-0.95,5.83,35,4.14,4.14,4.13,119.65,0.32,1.62,10.9,-1.56,0.09,0.64,-0.04,0.27,5.3,4.14,0,0,0,0,1,1,15,33.4986975,-99.3329862,415,2026,5,24,16,29,40,0,0,0,0,0.9,0.5,0.8,0,27,0,0,27,33,0,0,31,0,29,35,0,0,0,0,0,0,27,0,21,0,0,33,20,0,0,0,26,0,0,0
6,16370,1,KJ5LDI,0,3,   boost,108.12,97010,365.55,-0.95,5.83,35,4.14,4.14,4.13,119.65,0.32,1.62,10.9,-1.56,0.09,0.64,-0.04,0.27,5.3,4.14,0,0,0,0,1,1,15,33.4986975,-99.3329862,415,2026,5,24,16,29,40,0,0,0,0,0.9,0.5,0.8,0,27,0,0,27,33,0,0,31,0,29,35,0,0,0,0,0,0,27,0,21,0,0,33,20,0,0,0,26,0,0,0
6,16370,1,KJ5LDI,0,3,   boost,108.12,97010,365.55,-0.95,5.83,35,4.14,4.14,4.13,119.65,0.32,1.62,10.9,-1.56,0.09,0.64,-0.04,0.27,5.3,4.14,0,0,0,0,1,1,15,33.4986975,-99.3329862,415,2026,5,24,16,29,40,0,0,0,0,0.9,0.5,0.8,0,27,0,0,27,33,0,0,31,0,29,35,0,0,0,0,0,0,27,0,21,0,0,33,20,0,0,0,26,0,0,0
6,16370,1,KJ5LDI,0,3,   boost,108.12,97010,365.55,-0.95,5.83,35,4.14,4.14,4.13,119.65,0.32,1.62,10.9,-1.56,0.09,0.64,-0.04,0.27,5.29,4.14,0,0,0,0,1,1,15,33.4986975,-99.3329862,415,2026,5,24,16,29,40,0,0,0,0,0.9,0.5,0.8,0,27,0,0,27,33,0,0,31,0,29,35,0,0,0,0,0,0,27,0,21,0,0,33,20,0,0,0,26,0,0,0
6,16370,1,KJ5LDI,0,3,   boost,108.12,97010,365.55,-0.95,5.83,35,4.14,4.14,4.13,119.65,0.32,1.62,10.9,-1.56,0.09,0.64,-0.04,0.27,5.29,4.14,0,0,0,0,1,1,15,33.4986975,-99.3329862,415,2026,5,24,16,29,40,0,0,0,0,0.9,0.5,0.8,0,27,0,0,27,33,0,0,31,0,29,35,0,0,0,0,0,0,27,0,21,0,0,33,20,0,0,0,26,0,0,0
6,16370,1,KJ5LDI,0,3,   boost,108.12,97010,365.55,-0.95,5.83,35,4.14,4.14,4.13,119.65,0.32,1.62,10.9,-1.56,0.09,0.64,-0.04,0.27,5.29,4.14,0,0,0,0,1,1,15,33.4986975,-99.3329862,415,2026,5,24,16,29,40,0,0,0,0,0.9,0.5,0.8,0,27,0,0,27,33,0,0,31,0,29,35,0,0,0,0,0,0,27,0,21,0,0,33,20,0,0,0,26,0,0,0
6,16370,1,KJ5LDI,0,3,   boost,108.12,97010,365.55,-0.95,5.83,35,4.14,4.14,4.13,119.65,0.32,1.62,10.9,-1.56,0.09,0.64,-0.04,0.27,5.3,4.14,0,0,0,0,1,1,15,33.4986975,-99.3329862,415,2026,5,24,16,29,40,0,0,0,0,0.9,0.5,0.8,0,27,0,0,27,33,0,0,31,0,29,35,0,0,0,0,0,0,27,0,21,0,0,33,20,0,0,0,26,0,0,0
6,16370,1,KJ5LDI,0,3,   boost,108.12,97010,365.55,-0.95,5.83,35,4.14,4.14,4.13,119.65,0.32,1.62,10.9,-1.56,0.09,0.64,-0.04,0.27,5.3,4.14,0,0,0,0,1,1,15,33.4986975,-99.3329862,415,2026,5,24,16,29,40,0,0,0,0,0.9,0.5,0.8,0,27,0,0,27,33,0,0,31,0,29,35,0,0,0,0,0,0,27,0,21,0,0,33,20,0,0,0,26,0,0,0
6,16370,1,KJ5LDI,0,3,   boost,108.12,97010,365.55,-0.95,5.83,35,4.14,4.14,4.13,119.65,0.32,1.62,10.9,-1.56,0.09,0.64,-0.04,0.27,5.3,4.14,0,0,0,0,1,1,15,33.4986975,-99.3329862,415,2026,5,24,16,29,40,0,0,0,0,0.9,0.5,0.8,0,27,0,0,27,33,0,0,31,0,29,35,0,0,0,0,0,0,27,0,21,0,0,33,20,0,0,0,26,0,0,0
6,16370,1,KJ5LDI,0,3,   boost,108.12,97010,365.55,-0.95,5.83,35,4.14,4.14,4.13,119.65,0.32,1.62,10.9,-1.56,0.09,0.64,-0.04,0.27,5.3,4.14,0,0,0,0,1,1,15,33.4986975,-99.3329862,415,2026,5,24,16,29,40,0,0,0,0,0.9,0.5,0.8,0,27,0,0,27,33,0,0,31,0,29,35,0,0,0,0,0,0,27,0,21,0,0,33,20,0,0,0,26,0,0,0
6,16370,1,KJ5LDI,0,3,   boost,108.12,97010,365.55,-0.95,5.83,35,4.14,4.14,4.13,119.65,0.32,1.62,10.9,-1.56,0.09,0.64,-0.04,0.27,5.3,4.14,0,0,0,0,1,1,15,33.4986975,-99.3329862,415,2026,5,24,16,29,40,0,0,0,0,0.9,0.5,0.8,0,27,0,0,27,33,0,0,31,0,29,35,0,0,0,0,0,0,27,0,21,0,0,33,20,0,0,0,26,0,0,0
6,16370,1,KJ5LDI,0,3,   boost,108.12,97010,365.55,-0.95,5.83,35,4.14,4.14,4.13,119.65,0.32,1.62,10.9,-1.56,0.09,0.64,-0.04,0.27,5.3,4.14,0,0,0,0,1,1,15,33.4986975,-99.3329862,415,2026,5,24,16,29,40,0,0,0,0,0.9,0.5,0.8,0,27,0,0,27,33,0,0,31,0,29,35,0,0,0,0,0,0,27,0,21,0,0,33,20,0,0,0,26,0,0,0
6,16370,1,KJ5LDI,0,3,   boost,108.12,97010,365.55,-0.95,5.83,35,4.14,4.14,4.13,119.65,0.32,1.62,10.9,-1.56,0.09,0.64,-0.04,0.27,5.3,4.14,0,0,0,0,1,1,15,33.4986975,-99.3329862,415,2026,5,24,16,29,40,0,0,0,0,0.9,0.5,0.8,0,27,0,0,27,33,0,0,31,0,29,35,0,0,0,0,0,0,27,0,21,0,0,33,20,0,0,0,26,0,0,0
6,16370,1,KJ5LDI,0,3,   boost,108.12,97010,365.55,-0.95,5.83,35,4.14,4.14,4.13,119.65,0.32,1.62,10.9,-1.56,0.09,0.64,-0.04,0.27,5.3,4.14,0,0,0,0,1,1,15,33.4986975,-99.3329862,415,2026,5,24,16,29,40,0,0,0,0,0.9,0.5,0.8,0,27,0,0,27,33,0,0,31,0,29,35,0,0,0,0,0,0,27,0,21,0,0,33,20,0,0,0,26,0,0,0
6,16370,1,KJ5LDI,0,3,   boost,108.12,97010,365.55,-0.95,5.83,35,4.14,4.14,4.13,119.65,0.32,1.62,10.9,-1.56,0.09,0.64,-0.04,0.27,5.3,4.14,0,0,0,0,1,1,15,33.4986975,-99.3329862,415,2026,5,24,16,29,40,0,0,0,0,0.9,0.5,0.8,0,27,0,0,27,33,0,0,31,0,29,35,0,0,0,0,0,0,27,0,21,0,0,33,20,0,0,0,26,0,0,0
6,16370,1,KJ5LDI,0,3,   boost,108.12,97010,365.55,-0.95,5.83,35,4.14,4.14,4.13,119.65,0.32,1.62,10.9,-1.56,0.09,0.64,-0.04,0.27,5.3,4.14,0,0,0,0,1,1,15,33.4986975,-99.3329862,415,2026,5,24,16,29,40,0,0,0,0,0.9,0.5,0.8,0,27,0,0,27,33,0,0,31,0,29,35,0,0,0,0,0,0,27,0,21,0,0,33,20,0,0,0,26,0,0,0
6,16370,1,KJ5LDI,0,3,   boost,108.12,97010,365.55,-0.95,5.83,35,4.14,4.14,4.13,119.65,0.32,1.62,10.9,-1.56,0.09,0.64,-0.04,0.27,5.3,4.14,0,0,0,0,1,1,15,33.4986975,-99.3329862,415,2026,5,24,16,29,40,0,0,0,0,0.9,0.5,0.8,0,27,0,0,27,33,0,0,31,0,29,35,0,0,0,0,0,0,27,0,21,0,0,33,20,0,0,0,26,0,0,0
6,16370,1,KJ5LDI,0,3,   boost,108.12,97010,365.55,-0.95,5.83,35,4.14,4.14,4.13,119.65,0.32,1.62,10.9,-1.56,0.09,0.64,-0.04,0.27,5.3,4.14,0,0,0,0,1,1,15,33.4986975,-99.3329862,415,2026,5,24,16,29,40,0,0,0,0,0.9,0.5,0.8,0,27,0,0,27,33,0,0,31,0,29,35,0,0,0,0,0,0,27,0,21,0,0,33,20,0,0,0,26,0,0,0
6,16370,1,KJ5LDI,0,3,   boost,108.12,97010,365.55,-0.95,5.83,35,4.14,4.14,4.13,119.65,0.32,1.62,10.9,-1.56,0.09,0.64,-0.04,0.27,5.3,4.14,0,0,0,0,1,1,15,33.4986975,-99.3329862,415,2026,5,24,16,29,40,0,0,0,0,0.9,0.5,0.8,0,27,0,0,27,33,0,0,31,0,29,35,0,0,0,0,0,0,27,0,21,0,0,33,20,0,0,0,26,0,0,0
6,16370,1,KJ5LDI,0,3,   boost,108.12,97010,365.55,-0.95,5.83,35,4.14,4.14,4.13,119.65,0.32,1.62,10.9,-1.56,0.09,0.64,-0.04,0.27,5.3,4.14,0,0,0,0,1,1,15,33.4986975,-99.3329862,415,2026,5,24,16,29,40,0,0,0,0,0.9,0.5,0.8,0,27,0,0,27,33,0,0,31,0,29,35,0,0,0,0,0,0,27,0,21,0,0,33,20,0,0,0,26,0,0,0
6,16370,1,KJ5LDI,0,3,   boost,108.12,97010,365.55,-0.95,5.83,35,4.14,4.14,4.13,119.65,0.32,1.62,10.9,-1.56,0.09,0.64,-0.04,0.27,5.3,4.14,0,0,0,0,1,1,15,33.4986975,-99.3329862,415,2026,5,24,16,29,40,0,0,0,0,0.9,0.5,0.8,0,27,0,0,27,33,0,0,31,0,29,35,0,0,0,0,0,0,27,0,21,0,0,33,20,0,0,0,26,0,0,0
6,16370,1,KJ5LDI,0,3,   boost,108.12,97010,365.55,-0.95,5.83,35,4.14,4.14,4.13,119.65,0.32,1.62,10.9,-1.56,0.09,0.64,-0.04,0.27,5.3,4.14,0,0,0,0,1,1,15,33.4986975,-99.3329862,415,2026,5,24,16,29,40,0,0,0,0,0.9,0.5,0.8,0,27,0,0,27,33,0,0,31,0,29,35,0,0,0,0,0,0,27,0,21,0,0,33,20,0,0,0,26,0,0,0
6,16370,1,KJ5LDI,0,3,   boost,108.12,97010,365.55,-0.95,5.83,35,4.14,4.14,4.13,119.65,0.32,1.62,10.9,-1.56,0.09,0.64,-0.04,0.27,5.3,4.14,0,0,0,0,1,1,15,33.4986975,-99.3329862,415,2026,5,24,16,29,40,0,0,0,0,0.9,0.5,0.8,0,27,0,0,27,33,0,0,31,0,29,35,0,0,0,0,0,0,27,0,21,0,0,33,20,0,0,0,26,0,0,0
6,16370,1,KJ5LDI,0,3,   boost,108.12,97010,365.55,-0.95,5.83,35,4.14,4.14,4.13,119.65,0.32,1.62,10.9,-1.56,0.09,0.64,-0.04,0.27,5.29,4.14,0,0,0,0,1,1,15,33.4986975,-99.3329862,415,2026,5,24,16,29,40,0,0,0,0,0.9,0.5,0.8,0,27,0,0,27,33,0,0,31,0,29,35,0,0,0,0,0,0,27,0,21,0,0,33,20,0,0,0,26,0,0,0
6,16370,1,KJ5LDI,0,3,   boost,108.12,97010,365.55,-0.95,5.83,35,4.14,4.14,4.13,119.65,0.32,1.62,10.9,-1.56,0.09,0.64,-0.04,0.27,5.28,4.14,0,0,0,0,1,1,15,33.4986975,-99.3329862,415,2026,5,24,16,29,40,0,0,0,0,0.9,0.5,0.8,0,27,0,0,27,33,0,0,31,0,29,35,0,0,0,0,0,0,27,0,21,0,0,33,20,0,0,0,26,0,0,0
6,16370,1,KJ5LDI,0,3,   boost,108.12,97010,365.55,-0.95,5.83,35,4.14,4.14,4.13,119.65,0.32,1.62,10.9,-1.56,0.09,0.64,-0.04,0.27,5.29,4.14,0,0,0,0,1,1,15,33.4986975,-99.3329862,415,2026,5,24,16,29,40,0,0,0,0,0.9,0.5,0.8,0,27,0,0,27,33,0,0,31,0,29,35,0,0,0,0,0,0,27,0,21,0,0,33,20,0,0,0,26,0,0,0
6,16370,1,KJ5LDI,0,3,   boost,108.12,97010,365.55,-0.95,5.83,35,4.14,4.14,4.13,119.65,0.32,1.62,10.9,-1.56,0.09,0.64,-0.04,0.27,5.31,4.14,0,0,0,0,1,1,15,33.4986975,-99.3329862,415,2026,5,24,16,29,40,0,0,0,0,0.9,0.5,0.8,0,27,0,0,27,33,0,0,31,0,29,35,0,0,0,0,0,0,27,0,21,0,0,33,20,0,0,0,26,0,0,0
6,16370,1,KJ5LDI,0,3,   boost,108.12,97010,365.55,-0.95,5.83,35,4.14,4.14,4.13,119.65,0.32,1.62,10.9,-1.56,0.09,0.64,-0.04,0.27,5.32,4.14,0,0,0,0,1,1,15,33.4986975,-99.3329862,415,2026,5,24,16,29,40,0,0,0,0,0.9,0.5,0.8,0,27,0,0,27,33,0,0,31,0,29,35,0,0,0,0,0,0,27,0,21,0,0,33,20,0,0,0,26,0,0,0
6,16370,1,KJ5LDI,0.01,3,   boost,104.6,97010,365.55,-0.95,6.91,35,4.14,4.14,4.13,116.59,0.32,0.7,16.57,-2.11,0.34,0.64,-0.04,0.27,5.34,4.14,0,0,0,0,1,1,15,33.4986975,-99.3329862,415,2026,5,24,16,29,40,0,0,0,0,0.9,0.5,0.8,0,27,0,0,27,33,0,0,31,0,29,35,0,0,0,0,0,0,27,0,21,0,0,33,20,0,0,0,26,0,0,0
6,16370,1,KJ5LDI,0.01,3,   boost,104.6,97010,365.55,-0.95,6.91,35,4.14,4.14,4.13,116.59,0.32,0.7,16.57,-2.11,0.34,0.64,-0.04,0.27,5.34,4.14,0,0,0,0,1,1,15,33.4986975,-99.3329862,415,2026,5,24,16,29,40,0,0,0,0,0.9,0.5,0.8,0,27,0,0,27,33,0,0,31,0,29,35,0,0,0,0,0,0,27,0,21,0,0,33,20,0,0,0,26,0,0,0
6,16370,1,KJ5LDI,0.02,3,   boost,104.6,97063,360.98,-5.52,7.98,35,4.14,4.14,4.13,114.43,2.12,4.16,20.24,-2.23,0.34,0.65,-0.02,0.29,5.37,4.11,0,0,0,0,1,1,15,33.4986975,-99.3329862,415,2026,5,24,16,29,40,0,0,0,0,0.9,0.5,0.8,0,27,0,0,27,33,0,0,31,0,29,35,0,0,0,0,0,0,27,0,21,0,0,33,20,0,0,0,26,0,0,0
6,16370,1,KJ5LDI,0.02,3,   boost,104.6,97063,360.98,-5.52,7.98,35,4.14,4.14,4.13,114.43,2.12,4.16,20.24,-2.23,0.34,0.65,-0.02,0.29,5.37,4.11,0,0,0,0,1,1,15,33.4986975,-99.3329862,415,2026,5,24,16,29,40,0,0,0,0,0.9,0.5,0.8,0,27,0,0,27,33,0,0,31,0,29,35,0,0,0,0,0,0,27,0,21,0,0,33,20,0,0,0,26,0,0,0
6,16370,1,KJ5LDI,0.03,3,   boost,104.1,97063,360.98,-5.52,9.02,35,4.14,4.14,4.13,112.64,4.77,2.21,12.67,0.64,1.31,0.66,-0.03,0.28,5.36,4.11,0,0,0,0,1,1,15,33.4986975,-99.3329862,415,2026,5,24,16,29,40,0,0,0,0,0.9,0.5,0.8,0,27,0,0,27,33,0,0,31,0,29,35,0,0,0,0,0,0,27,0,21,0,0,33,20,0,0,0,26,0,0,0
6,16370,1,KJ5LDI,0.04,3,   boost,104.6,97061,361.15,-5.35,10.06,35,4.14,4.14,4.13,111.52,1.65,0.56,14.5,3.32,0.21,0.66,-0.04,0.27,5.33,4.11,0,0,0,0,1,1,15,33.4986975,-99.3329862,415,2026,5,24,16,29,40,0,0,0,0,0.9,0.5,0.8,0,27,0,0,27,33,0,0,31,0,29,35,0,0,0,0,0,0,27,0,21,0,0,33,20,0,0,0,26,0,0,0
6,16370,1,KJ5LDI,0.05,3,   boost,103.6,97061,361.15,-5.35,11.1,35,4.14,4.14,4.13,111.16,-0.89,-0.93,17.98,-1.38,-0.52,0.66,-0.05,0.26,5.34,4.11,0,0,0,0,1,1,15,33.4986975,-99.3329862,415,2026,5,24,16,29,40,0,0,0,0,0.9,0.5,0.8,0,27,0,0,27,33,0,0,31,0,29,35,0,0,0,0,0,0,27,0,21,0,0,33,20,0,0,0,26,0,0,0
6,16370,1,KJ5LDI,0.06,3,   boost,104.6,97050,362.1,-4.4,12.14,35,4.14,4.14,4.13,110.82,0.11,2.5,20.42,0.21,1.31,0.65,-0.06,0.26,5.34,4.11,0,0,0,0,1,1,15,33.4986975,-99.3329862,415,2026,5,24,16,29,40,0,0,0,0,0.9,0.5,0.8,0,27,0,0,27,33,0,0,31,0,29,35,0,0,0,0,0,0,27,0,21,0,0,33,20,0,0,0,26,0,0,0
6,16370,1,KJ5LDI,0.07,3,   boost,103.6,97050,362.1,-4.4,13.17,35,4.14,4.14,4.13,111.17,0.88,0.17,32.14,-1.93,-0.76,0.64,-0.06,0.26,5.36,4.11,0,0,0,0,1,1,15,33.4986975,-99.3329862,415,2026,5,24,16,29,40,0,0,0,0,0.9,0.5,0.8,0,27,0,0,27,33,0,0,31,0,29,35,0,0,0,0,0,0,27,0,21,0,0,33,20,0,0,0,26,0,0,0
6,16370,1,KJ5LDI,0.08,3,   boost,104.1,97042,362.79,-3.71,14.21,35,4.14,4.14,4.13,110.77,0.34,5.2,20.91,0.52,1.62,0.64,-0.06,0.26,5.36,4.11,0,0,0,0,1,1,15,33.4986975,-99.3329862,415,2026,5,24,16,29,40,0,0,0,0,0.9,0.5,0.8,0,27,0,0,27,33,0,0,31,0,29,35,0,0,0,0,0,0,27,0,21,0,0,33,20,0,0,0,26,0,0,0
6,16370,1,KJ5LDI,0.09,3,   boost,105.11,97042,362.79,-3.71,15.24,35,4.14,4.14,4.13,110.1,4.18,1.98,24.02,3.26,-0.7,0.64,-0.06,0.26,5.32,4.11,0,0,0,0,1,1,15,33.4986975,-99.3329862,415,2026,5,24,16,29,40,0,0,0,0,0.9,0.5,0.8,0,27,0,0,27,33,0,0,31,0,29,35,0,0,0,0,0,0,27,0,21,0,0,33,20,0,0,0,26,0,0,0
6,16370,1,KJ5LDI,0.1,3,   boost,100.58,97048,362.27,-4.22,16.27,35,4.14,4.14,4.13,110.45,-2.45,-0.45,23.65,-0.4,1.5,0.63,-0.03,0.29,5.33,4.11,0,0,0,0,1,1,15,33.4986975,-99.3329862,415,2026,5,24,16,29,40,0,0,0,0,0.9,0.5,0.8,0,27,0,0,27,33,0,0,31,0,29,35,0,0,0,0,0,0,27,0,21,0,0,33,20,0,0,0,26,0,0,0
6,16370,1,KJ5LDI,0.11,3,   boost,101.08,97048,362.27,-4.22,17.31,35,4.14,4.14,4.13,109.89,1.18,0.03,29.57,2.29,0.7,0.63,-0.02,0.29,5.31,4.11,0,0,0,0,1,1,15,33.4986975,-99.3329862,415,2026,5,24,16,29,40,0,0,0,0,0.9,0.5,0.8,0,27,0,0,27,33,0,0,31,0,29,35,0,0,0,0,0,0,27,0,21,0,0,33,20,0,0,0,26,0,0,0
6,16370,1,KJ5LDI,0.12,3,   boost,110.14,97016,365.03,-1.47,18.37,35,4.14,4.14,4.13,110.13,4.45,5.26,20.05,-12.42,-1.43,0.63,-0.02,0.29,5.43,4.11,0,0,0,0,1,1,15,33.4986975,-99.3329862,415,2026,5,24,16,29,40,0,0,0,0,0.9,0.5,0.8,0,27,0,0,27,33,0,0,31,0,29,35,0,0,0,0,0,0,27,0,21,0,0,33,20,0,0,0,26,0,0,0
6,16370,1,KJ5LDI,0.13,3,   boost,108.63,97016,365.03,-1.47,19.43,35,4.14,4.14,4.13,113.49,19.37,-30.72,-53.56,13.58,7.54,0.65,-0.03,0.28,5.3,4.11,0,0,0,0,1,1,15,33.4986975,-99.3329862,415,2026,5,24,16,29,40,0,0,0,0,0.9,0.5,0.8,0,27,0,0,27,33,0,0,31,0,29,35,0,0,0,0,0,0,27,0,21,0,0,33,20,0,0,0,26,0,0,0
6,16370,1,KJ5LDI,0.14,3,   boost,109.13,97010,365.55,-0.95,20.52,35,4.14,4.14,4.13,107.43,-13.29,17.98,-30.24,11.14,-3.51,0.65,-0.03,0.27,5.19,4.11,0,0,0,0,1,1,15,33.4986975,-99.3329862,415,2026,5,24,16,29,40,0,0,0,0,0.9,0.5,0.8,0,27,0,0,27,33,0,0,31,0,29,35,0,0,0,0,0,0,27,0,21,0,0,33,20,0,0,0,26,0,0,0
6,16370,1,KJ5LDI,0.15,3,   boost,112.15,97010,365.55,-0.95,21.6,35,4.14,4.14,4.13,116.59,-1.64,-8.98,-15.96,3.75,1.74,0.65,-0.03,0.27,5.15,4.11,0,0,0,0,1,1,15,33.4986975,-99.3329862,415,2026,5,24,16,29,40,0,0,0,0,0.9,0.5,0.8,0,27,0,0,27,33,0,0,31,0,29,35,0,0,0,0,0,0,27,0,21,0,0,33,20,0,0,0,26,0,0,0
6,16370,1,KJ5LDI,0.16,3,   boost,110.14,97007,365.81,-0.69,22.7,35,4.14,4.14,4.13,114.36,-6.04,23.56,-10.95,7.72,0.03,0.64,-0.05,0.26,5.08,4.11,0,0,0,0,1,1,15,33.4986975,-99.3329862,415,2026,5,24,16,29,40,0,0,0,0,0.9,0.5,0.8,0,27,0,0,27,33,0,0,31,0,29,35,0,0,0,0,0,0,27,0,21,0,0,33,20,0,0,0,26,0,0,0
6,16370,1,KJ5LDI,0.17,3,   boost,110.14,97007,365.81,-0.69,23.79,35,4.14,4.14,4.13,116.35,5.16,4.6,-16.39,4.48,0.34,0.64,-0.05,0.26,5.04,4.11,0,0,0,0,1,1,15,33.4986975,-99.3329862,415,2026,5,24,16,29,40,0,0,0,0,0.9,0.5,0.8,0,27,0,0,27,33,0,0,31,0,29,35,0,0,0,0,0,0,27,0,21,0,0,33,20,0,0,0,26,0,0,0
6,16370,1,KJ5LDI,0.18,3,   boost,106.11,96990,367.27,0.78,24.88,35,4.14,4.14,4.13,116.23,14.22,-9.73,-20.48,5.7,-0.15,0.65,-0.03,0.27,4.98,4.11,0,0,0,0,1,1,15,33.4986975,-99.3329862,415,2026,5,24,16,29,40,0,0,0,0,0.9,0.5,0.8,0,27,0,0,27,33,0,0,31,0,29,35,0,0,0,0,0,0,27,0,21,0,0,33,20,0,0,0,26,0,0,0
6,16370,1,KJ5LDI,0.19,3,   boost,110.14,96990,367.27,0.78,25.97,35,4.14,4.14,4.13,116.29,-0.3,-5.82,-40.56,0.64,-1.98,0.65,-0.04,0.25,4.97,4.11,0,0,0,0,1,1,15,33.4986975,-99.3329862,415,2026,5,24,16,29,40,0,0,0,0,0.9,0.5,0.8,0,27,0,0,27,33,0,0,31,0,29,35,0,0,0,0,0,0,27,0,21,0,0,33,20,0,0,0,26,0,0,0
6,16370,1,KJ5LDI,0.2,3,   boost,110.64,96959,369.95,3.45,27.06,35,4.14,4.14,4.13,116.74,0.01,-1.93,-29.63,-0.28,1.62,0.63,-0.03,0.26,4.97,4.11,0,0,0,0,1,1,15,33.4986975,-99.3329862,415,2026,5,24,16,29,40,0,0,0,0,0.9,0.5,0.8,0,27,0,0,27,33,0,0,31,0,29,35,0,0,0,0,0,0,27,0,21,0,0,33,20,0,0,0,26,0,0,0
6,16370,1,KJ5LDI,0.21,3,   boost,108.12,96959,369.95,3.45,28.16,35,4.14,4.14,4.13,117.79,-6.16,7.21,-17.91,1.19,-0.52,0.64,0.02,0.31,4.96,4.11,0,0,0,0,1,1,15,33.4986975,-99.3329862,415,2026,5,24,16,29,40,0,0,0,0,0.9,0.5,0.8,0,27,0,0,27,33,0,0,31,0,29,35,0,0,0,0,0,0,27,0,21,0,0,33,20,0,0,0,26,0,0,0
6,16370,1,KJ5LDI,0.22,3,   boost,113.15,96954,370.38,3.88,29.26,35,4.14,4.14,4.13,117.58,5.27,-4.17,6.93,0.21,-0.89,0.75,0.01,0.31,4.96,4.11,0,0,0,0,1,1,15,33.4986975,-99.3329862,415,2026,5,24,16,29,40,0,0,0,0,0.9,0.5,0.8,0,27,0,0,27,33,0,0,31,0,29,35,0,0,0,0,0,0,27,0,21,0,0,33,20,0,0,0,26,0,0,0
6,16370,1,KJ5LDI,0.23,3,   boost,111.64,96954,370.38,3.88,30.38,35,4.14,4.14,4.13,118.84,3.05,0.3,27.19,-1.8,-1.43,0.75,0.01,0.31,4.97,4.11,0,0,0,0,1,1,15,33.4986975,-99.3329862,415,2026,5,24,16,29,40,0,0,0,0,0.9,0.5,0.8,0,27,0,0,27,33,0,0,31,0,29,35,0,0,0,0,0,0,27,0,21,0,0,33,20,0,0,0,26,0,0,0
6,16370,1,KJ5LDI,0.24,3,   boost,113.15,96960,369.86,3.36,31.5,35,4.14,4.14,4.13,120.05,1.01,1.94,27.32,0.09,-1.31,0.66,-0.17,0.2,4.97,4.11,0,0,0,0,1,1,15,33.4986975,-99.3329862,415,2026,5,24,16,29,40,0,0,0,0,0.9,0.5,0.8,0,27,0,0,27,33,0,0,31,0,29,35,0,0,0,0,0,0,27,0,21,0,0,33,20,0,0,0,26,0,0,0
6,16370,1,KJ5LDI,0.25,3,   boost,113.15,96960,369.86,3.36,32.63,35,4.14,4.14,4.13,120.09,5.35,-1.21,9.19,-1.19,0.95,0.65,-0.17,0.2,4.98,4.11,0,0,0,0,1,1,15,33.4986975,-99.3329862,415,2026,5,24,16,29,40,0,0,0,0,0.9,0.5,0.8,0,27,0,0,27,33,0,0,31,0,29,35,0,0,0,0,0,0,27,0,21,0,0,33,20,0,0,0,26,0,0,0
6,16370,1,KJ5LDI,0.26,3,   boost,116.67,96928,372.62,6.12,33.76,35,4.14,4.14,4.13,120.92,-3.24,2.15,5.16,-3.57,0.15,0.65,-0.17,0.2,5.02,4.11,0,0,0,0,1,1,15,33.4986975,-99.3329862,415,2026,5,24,16,29,40,0,0,0,0,0.9,0.5,0.8,0,27,0,0,27,33,0,0,31,0,29,35,0,0,0,0,0,0,27,0,21,0,0,33,20,0,0,0,26,0,0,0
6,16370,1,KJ5LDI,0.27,3,   boost,113.15,96928,372.62,6.12,34.9,35,4.14,4.14,4.13,121.29,1.75,-3.18,44.41,1.07,0.09,0.65,-0.17,0.2,5.01,4.11,0,0,0,0,1,1,15,33.4986975,-99.3329862,415,2026,5,24,16,29,40,0,0,0,0,0.9,0.5,0.8,0,27,0,0,27,33,0,0,31,0,29,35,0,0,0,0,0,0,27,0,21,0,0,33,20,0,0,0,26,0,0,0
6,16370,1,KJ5LDI,0.28,3,   boost,113.66,96888,376.07,9.58,36.03,35,4.14,4.14,4.13,121.29,-0.34,4.56,41.6,-1.44,0.76,0.64,-0.17,0.21,5.02,4.11,0,0,0,0,1,1,15,33.4986975,-99.3329862,415,2026,5,24,16,29,40,0,0,0,0,0.9,0.5,0.8,0,27,0,0,27,33,0,0,31,0,29,35,0,0,0,0,0,0,27,0,21,0,0,33,20,0,0,0,26,0,0,0
6,16370,1,KJ5LDI,0.29,3,   boost,114.16,96888,376.07,9.58,37.17,35,4.14,4.14,4.13,122.5,4.1,-5.88,57.59,1.49,0.46,0.64,-0.17,0.21,5.01,4.11,0,0,0,0,1,1,15,33.4986975,-99.3329862,415,2026,5,24,16,29,40,0,0,0,0,0.9,0.5,0.8,0,27,0,0,27,33,0,0,31,0,29,35,0,0,0,0,0,0,27,0,21,0,0,33,20,0,0,0,26,0,0,0
6,16370,1,KJ5LDI,0.3,3,   boost,113.15,96869,377.71,11.22,38.31,35,4.14,4.14,4.13,122.03,2.03,6.69,52.58,-0.09,1.8,0.64,-0.17,0.21,5.01,4.11,0,0,0,0,1,1,15,33.4986975,-99.3329862,415,2026,5,24,16,29,40,0,0,0,0,0.9,0.5,0.8,0,27,0,0,27,33,0,0,31,0,29,35,0,0,0,0,0,0,27,0,21,0,0,33,20,0,0,0,26,0,0,0
6,16370,1,KJ5LDI,0.31,3,   boost,115.17,96869,377.71,11.22,39.45,35,4.14,4.14,4.13,122.87,4.62,1.21,48.25,-1.93,3.94,0.64,-0.17,0.21,5.04,4.11,0,0,0,0,1,1,15,33.4986975,-99.3329862,415,2026,5,24,16,29,40,0,0,0,0,0.9,0.5,0.8,0,27,0,0,27,33,0,0,31,0,29,35,0,0,0,0,0,0,27,0,21,0,0,33,20,0,0,0,26,0,0,0
6,16370,1,KJ5LDI,0.32,3,   boost,117.68,96882,376.59,10.09,40.6,35,4.14,4.14,4.13,122.93,4.4,-1.23,51.73,1.92,2.9,0.64,-0.17,0.21,5.02,4.11,0,0,0,0,1,1,15,33.4986975,-99.3329862,415,2026,5,24,16,29,40,0,0,0,0,0.9,0.5,0.8,0,27,0,0,27,33,0,0,31,0,29,35,0,0,0,0,0,0,27,0,21,0,0,33,20,0,0,0,26,0,0,0
6,16370,1,KJ5LDI,0.33,3,   boost,116.17,96882,376.59,10.09,41.76,35,4.14,4.14,4.13,123.33,1.86,3.21,52.95,0.09,4.36,0.64,-0.16,0.21,5.03,4.11,0,0,0,0,1,1,15,33.4986975,-99.3329862,415,2026,5,24,16,29,40,0,0,0,0,0.9,0.5,0.8,0,27,0,0,27,33,0,0,31,0,29,35,0,0,0,0,0,0,27,0,21,0,0,33,20,0,0,0,26,0,0,0
6,16370,1,KJ5LDI,0.34,3,   boost,115.67,96881,376.68,10.18,42.91,35,4.14,4.12,4.13,123.73,-0.73,1.06,53.26,0.09,4.06,0.64,-0.16,0.21,5.03,4.12,0,0,0,0,1,1,15,33.4986975,-99.3329862,415,2026,5,24,16,29,40,0,0,0,0,0.9,0.5,0.8,0,27,0,0,27,33,0,0,31,0,29,35,0,0,0,0,0,0,27,0,21,0,0,33,20,0,0,0,26,0,0,0
6,16370,1,KJ5LDI,0.34,3,   boost,115.67,96881,376.68,10.18,42.91,35,4.14,4.12,4.13,123.73,-0.73,1.06,53.26,0.09,4.06,0.64,-0.16,0.21,5.03,4.12,0,0,0,0,1,1,15,33.4986975,-99.3329862,415,2026,5,24,16,29,40,0,0,0,0,0.9,0.5,0.8,0,27,0,0,27,33,0,0,31,0,29,35,0,0,0,0,0,0,27,0,21,0,0,33,20,0,0,0,26,0,0,0
6,16370,1,KJ5LDI,0.35,3,   boost,116.67,96881,376.68,10.18,44.07,35,4.14,4.12,4.13,123.58,1.06,1.9,53.13,-1.86,4.79,0.64,-0.16,0.22,5.06,4.12,0,0,0,0,1,1,15,33.4986975,-99.3329862,415,2026,5,24,16,29,40,0,0,0,0,0.9,0.5,0.8,0,27,0,0,27,33,0,0,31,0,29,35,0,0,0,0,0,0,27,0,21,0,0,33,20,0,0,0,26,0,0,0
6,16370,1,KJ5LDI,0.36,3,   boost,116.17,96864,378.14,11.65,45.23,35,4.14,4.12,4.13,124.28,1.64,0.27,53.68,-1.93,5.58,0.64,-0.16,0.22,5.09,4.12,0,0,0,0,1,1,15,33.4986975,-99.3329862,415,2026,5,24,16,29,40,0,0,0,0,0.9,0.5,0.8,0,27,0,0,27,33,0,0,31,0,29,35,0,0,0,0,0,0,27,0,21,0,0,33,20,0,0,0,26,0,0,0
6,16370,1,KJ5LDI,0.37,3,   boost,116.17,96864,378.14,11.65,46.39,35,4.14,4.12,4.13,124.15,3.75,2.79,54.17,-1.74,5.46,0.64,-0.16,0.22,5.11,4.12,0,0,0,0,1,1,15,33.4986975,-99.3329862,415,2026,5,24,16,29,40,0,0,0,0,0.9,0.5,0.8,0,27,0,0,27,33,0,0,31,0,29,35,0,0,0,0,0,0,27,0,21,0,0,33,20,0,0,0,26,0,0,0
6,16370,1,KJ5LDI,0.38,3,   boost,117.18,96864,378.14,11.65,47.55,35,4.14,4.12,4.13,124.69,3.52,2.37,54.78,-2.41,6.38,0.64,-0.16,0.22,5.14,4.12,0,0,0,0,1,1,15,33.4986975,-99.3329862,415,2026,5,24,16,29,40,0,0,0,0,0.9,0.5,0.8,0,27,0,0,27,33,0,0,31,0,29,35,0,0,0,0,0,0,27,0,21,0,0,33,20,0,0,0,26,0,0,0
6,16370,1,KJ5LDI,0.39,3,   boost,117.68,96864,378.14,11.65,48.72,35,4.14,4.12,4.13,125.24,2.55,2.27,55.7,-1.93,6.13,0.64,-0.16,0.22,5.17,4.12,0,0,0,0,1,1,15,33.4986975,-99.3329862,415,2026,5,24,16,29,40,0,0,0,0,0.9,0.5,0.8,0,27,0,0,27,33,0,0,31,0,29,35,0,0,0,0,0,0,27,0,21,0,0,33,20,0,0,0,26,0,0,0
6,16370,1,KJ5LDI,0.4,3,   boost,117.68,96861,378.4,11.91,49.89,35,4.14,4.12,4.13,125.58,1.72,1.31,56,-3.94,6.81,0.64,-0.16,0.22,5.22,4.12,0,0,0,0,1,1,15,33.4986975,-99.3329862,415,2026,5,24,16,29,40,0,0,0,0,0.9,0.5,0.8,0,27,0,0,27,33,0,0,31,0,29,35,0,0,0,0,0,0,27,0,21,0,0,33,20,0,0,0,26,0,0,0
6,16370,1,KJ5LDI,0.41,3,   boost,117.68,96861,378.4,11.91,51.06,35,4.14,4.12,4.13,125.62,0.4,0.18,56.31,-3.57,7.54,0.64,-0.15,0.22,5.27,4.12,0,0,0,0,1,1,15,33.4986975,-99.3329862,415,2026,5,24,16,29,40,0,0,0,0,0.9,0.5,0.8,0,27,0,0,27,33,0,0,31,0,29,35,0,0,0,0,0,0,27,0,21,0,0,33,20,0,0,0,26,0,0,0
6,16370,1,KJ5LDI,0.42,3,   boost,118.18,96838,380.39,13.89,52.24,35,4.14,4.12,4.13,125.85,1.57,1.77,56.55,-4.49,8.27,0.64,-0.15,0.23,5.33,4.12,0,0,0,0,1,1,15,33.4986975,-99.3329862,415,2026,5,24,16,29,40,0,0,0,0,0.9,0.5,0.8,0,27,0,0,27,33,0,0,31,0,29,35,0,0,0,0,0,0,27,0,21,0,0,33,20,0,0,0,26,0,0,0
6,16370,1,KJ5LDI,0.43,3,   boost,118.18,96838,380.39,13.89,53.42,35,4.14,4.12,4.13,125.99,2.26,1.56,57.04,-4.49,8.51,0.64,-0.15,0.23,5.38,4.12,0,0,0,0,1,1,15,33.4986975,-99.3329862,415,2026,5,24,16,29,40,0,0,0,0,0.9,0.5,0.8,0,27,0,0,27,33,0,0,31,0,29,35,0,0,0,0,0,0,27,0,21,0,0,33,20,0,0,0,26,0,0,0
6,16370,1,KJ5LDI,0.44,3,   boost,119.19,96843,379.96,13.46,54.6,35,4.14,4.12,4.13,126.12,3.64,3.14,57.28,-4.73,8.82,0.64,-0.15,0.23,5.45,4.12,0,0,0,0,1,1,15,33.4986975,-99.3329862,415,2026,5,24,16,29,40,0,0,0,0,0.9,0.5,0.8,0,27,0,0,27,33,0,0,31,0,29,35,0,0,0,0,0,0,27,0,21,0,0,33,20,0,0,0,26,0,0,0
6,16370,1,KJ5LDI,0.45,3,   boost,119.19,96843,379.96,13.46,55.79,35,4.14,4.12,4.13,126.96,3.14,1.95,58.69,-5.28,9.19,0.64,-0.15,0.23,5.51,4.12,0,0,0,0,1,1,15,33.4986975,-99.3329862,415,2026,5,24,16,29,40,0,0,0,0,0.9,0.5,0.8,0,27,0,0,27,33,0,0,31,0,29,35,0,0,0,0,0,0,27,0,21,0,0,33,20,0,0,0,26,0,0,0
6,16370,1,KJ5LDI,0.46,3,   boost,120.7,96837,380.48,13.98,56.98,35,4.14,4.12,4.13,126.96,1.72,1.51,58.87,-5.65,9.25,0.64,-0.15,0.23,5.58,4.12,0,0,0,0,1,1,15,33.4986975,-99.3329862,415,2026,5,24,16,29,40,0,0,0,0,0.9,0.5,0.8,0,27,0,0,27,33,0,0,31,0,29,35,0,0,0,0,0,0,27,0,21,0,0,33,20,0,0,0,26,0,0,0
6,16370,1,KJ5LDI,0.47,3,   boost,120.7,96837,380.48,13.98,58.17,35,4.14,4.12,4.13,127.57,0.93,1.03,59.24,-6.87,10.53,0.64,-0.15,0.23,5.67,4.12,0,0,0,0,1,1,15,33.4986975,-99.3329862,415,2026,5,24,16,29,40,0,0,0,0,0.9,0.5,0.8,0,27,0,0,27,33,0,0,31,0,29,35,0,0,0,0,0,0,27,0,21,0,0,33,20,0,0,0,26,0,0,0
6,16370,1,KJ5LDI,0.48,3,   boost,119.19,96823,381.68,15.19,59.36,35,4.14,4.12,4.13,127.83,0.74,1.12,59.54,-7.11,10.53,0.64,-0.15,0.23,5.76,4.12,0,0,0,0,1,1,15,33.4986975,-99.3329862,415,2026,5,24,16,29,40,0,0,0,0,0.9,0.5,0.8,0,27,0,0,27,33,0,0,31,0,29,35,0,0,0,0,0,0,27,0,21,0,0,33,20,0,0,0,26,0,0,0
6,16370,1,KJ5LDI,0.49,3,   boost,120.19,96823,381.68,15.19,60.56,35,4.14,4.12,4.13,127.89,2.23,2.28,60.46,-7.78,11.26,0.64,-0.14,0.24,5.86,4.12,0,0,0,0,1,1,15,33.4986975,-99.3329862,415,2026,5,24,16,29,40,0,0,0,0,0.9,0.5,0.8,0,27,0,0,27,33,0,0,31,0,29,35,0,0,0,0,0,0,27,0,21,0,0,33,20,0,0,0,26,0,0,0
6,16370,1,KJ5LDI,0.5,3,   boost,119.69,96820,381.94,15.45,61.75,35,4.14,4.12,4.13,128.36,3.12,2.18,61.43,-8.09,11.51,0.64,-0.14,0.24,5.96,4.12,0,0,0,0,1,1,15,33.4986975,-99.3329862,415,2026,5,24,16,29,40,0,0,0,0,0.9,0.5,0.8,0,27,0,0,27,33,0,0,31,0,29,35,0,0,0,0,0,0,27,0,21,0,0,33,20,0,0,0,26,0,0,0
6,16370,1,KJ5LDI,0.51,3,   boost,122.21,96820,381.94,15.45,62.95,35,4.14,4.12,4.13,128.5,3.33,2.38,62.41,-8.64,11.57,0.63,-0.14,0.24,6.07,4.12,0,0,0,0,1,1,15,33.4986975,-99.3329862,415,2026,5,24,16,29,40,0,0,0,0,0.9,0.5,0.8,0,27,0,0,27,33,0,0,31,0,29,35,0,0,0,0,0,0,27,0,21,0,0,33,20,0,0,0,26,0,0,0
6,16370,1,KJ5LDI,0.52,3,   boost,120.7,96810,382.81,16.31,64.15,35,4.14,4.12,4.13,129.07,2.15,1.24,63.02,-8.88,11.63,0.63,-0.14,0.24,6.18,4.12,0,0,0,0,1,1,15,33.4986975,-99.3329862,415,2026,5,24,16,29,40,0,0,0,0,0.9,0.5,0.8,0,27,0,0,27,33,0,0,31,0,29,35,0,0,0,0,0,0,27,0,21,0,0,33,20,0,0,0,26,0,0,0
6,16370,1,KJ5LDI,0.53,3,   boost,120.19,96810,382.81,16.31,65.35,35,4.14,4.12,4.13,129.13,0.79,0.91,63.45,-9.86,12.3,0.63,-0.14,0.24,6.3,4.12,0,0,0,0,1,1,15,33.4986975,-99.3329862,415,2026,5,24,16,29,40,0,0,0,0,0.9,0.5,0.8,0,27,0,0,27,33,0,0,31,0,29,35,0,0,0,0,0,0,27,0,21,0,0,33,20,0,0,0,26,0,0,0
6,16370,1,KJ5LDI,0.54,3,   boost,121.2,96808,382.98,16.48,66.56,35,4.14,4.12,4.13,129.38,0.41,0.79,63.94,-10.53,12.97,0.63,-0.14,0.25,6.43,4.12,0,0,0,0,1,1,15,33.4986975,-99.3329862,415,2026,5,24,16,29,40,0,0,0,0,0.9,0.5,0.8,0,27,0,0,27,33,0,0,31,0,29,35,0,0,0,0,0,0,27,0,21,0,0,33,20,0,0,0,26,0,0,0
6,16370,1,KJ5LDI,0.55,3,   boost,121.7,96808,382.98,16.48,67.76,35,4.14,4.12,4.13,129.89,1.99,2.05,64.55,-10.65,13.15,0.63,-0.14,0.25,6.56,4.12,0,0,0,0,1,1,15,33.4986975,-99.3329862,415,2026,5,24,16,29,40,0,0,0,0,0.9,0.5,0.8,0,27,0,0,27,33,0,0,31,0,29,35,0,0,0,0,0,0,27,0,21,0,0,33,20,0,0,0,26,0,0,0
6,16370,1,KJ5LDI,0.56,3,   boost,121.7,96797,383.93,17.43,68.97,35,4.14,4.12,4.13,130.19,3.07,2.13,65.1,-11.57,13.46,0.63,-0.14,0.25,6.71,4.12,0,0,0,0,1,1,15,33.4986975,-99.3329862,415,2026,5,24,16,29,40,0,0,0,0,0.9,0.5,0.8,0,27,0,0,27,33,0,0,31,0,29,35,0,0,0,0,0,0,27,0,21,0,0,33,20,0,0,0,26,0,0,0
6,16370,1,KJ5LDI,0.57,3,   boost,123.21,96797,383.93,17.43,70.18,35,4.14,4.12,4.13,130.27,2.87,2.28,66.38,-11.2,13.58,0.63,-0.13,0.25,6.85,4.12,0,0,0,0,1,1,15,33.4986975,-99.3329862,415,2026,5,24,16,29,40,0,0,0,0,0.9,0.5,0.8,0,27,0,0,27,33,0,0,31,0,29,35,0,0,0,0,0,0,27,0,21,0,0,33,20,0,0,0,26,0,0,0
6,16370,1,KJ5LDI,0.58,3,   boost,121.7,96789,384.62,18.13,71.4,35,4.14,4.12,4.13,130.6,1.93,1.18,66.74,-11.75,13.64,0.63,-0.13,0.26,6.99,4.12,0,0,0,0,1,1,15,33.4986975,-99.3329862,415,2026,5,24,16,29,40,0,0,0,0,0.9,0.5,0.8,0,27,0,0,27,33,0,0,31,0,29,35,0,0,0,0,0,0,27,0,21,0,0,33,20,0,0,0,26,0,0,0
6,16370,1,KJ5LDI,0.59,3,   boost,122.21,96789,384.62,18.13,72.61,35,4.14,4.12,4.13,130.91,0.73,0.47,67.54,-12.36,13.89,0.63,-0.13,0.26,7.15,4.12,0,0,0,0,1,1,15,33.4986975,-99.3329862,415,2026,5,24,16,29,40,0,0,0,0,0.9,0.5,0.8,0,27,0,0,27,33,0,0,31,0,29,35,0,0,0,0,0,0,27,0,21,0,0,33,20,0,0,0,26,0,0,0
6,16370,1,KJ5LDI,0.6,3,   boost,123.21,96778,385.57,19.08,73.83,35,4.14,4.12,4.13,131.19,0.5,0.75,67.66,-13.28,14.43,0.63,-0.13,0.26,7.31,4.12,0,0,0,0,1,1,15,33.4986975,-99.3329862,415,2026,5,24,16,29,40,0,0,0,0,0.9,0.5,0.8,0,27,0,0,27,33,0,0,31,0,29,35,0,0,0,0,0,0,27,0,21,0,0,33,20,0,0,0,26,0,0,0
6,16370,1,KJ5LDI,0.61,3,   boost,122.71,96778,385.57,19.08,75.04,35,4.14,4.12,4.13,131.29,1.39,1.17,68.09,-14.01,14.86,0.63,-0.13,0.26,7.48,4.12,0,0,0,0,1,1,15,33.4986975,-99.3329862,415,2026,5,24,16,29,40,0,0,0,0,0.9,0.5,0.8,0,27,0,0,27,33,0,0,31,0,29,35,0,0,0,0,0,0,27,0,21,0,0,33,20,0,0,0,26,0,0,0
6,16370,1,KJ5LDI,0.62,3,   boost,123.21,96783,385.14,18.64,76.26,35,4.14,4.12,4.13,131.37,2.45,2.12,68.94,-13.77,14.62,0.63,-0.13,0.26,7.65,4.12,0,0,0,0,1,1,15,33.4986975,-99.3329862,415,2026,5,24,16,29,40,0,0,0,0,0.9,0.5,0.8,0,27,0,0,27,33,0,0,31,0,29,35,0,0,0,0,0,0,27,0,21,0,0,33,20,0,0,0,26,0,0,0
6,16370,1,KJ5LDI,0.63,3,   boost,123.71,96783,385.14,18.64,77.48,35,4.14,4.12,4.13,131.57,2.67,1.95,69.98,-14.38,14.98,0.63,-0.13,0.27,7.83,4.12,0,0,0,0,1,1,15,33.4986975,-99.3329862,415,2026,5,24,16,29,40,0,0,0,0,0.9,0.5,0.8,0,27,0,0,27,33,0,0,31,0,29,35,0,0,0,0,0,0,27,0,21,0,0,33,20,0,0,0,26,0,0,0
6,16370,1,KJ5LDI,0.64,3,   boost,123.21,96770,386.26,19.77,78.7,35,4.14,4.12,4.13,132.05,1.93,1.27,70.96,-14.74,14.68,0.62,-0.12,0.27,8.01,4.12,0,0,0,0,1,1,15,33.4986975,-99.3329862,415,2026,5,24,16,29,40,0,0,0,0,0.9,0.5,0.8,0,27,0,0,27,33,0,0,31,0,29,35,0,0,0,0,0,0,27,0,21,0,0,33,20,0,0,0,26,0,0,0
6,16370,1,KJ5LDI,0.65,3,   boost,123.71,96770,386.26,19.77,79.92,35,4.14,4.12,4.13,132.03,0.99,0.2,71.32,-15.11,15.05,0.62,-0.12,0.27,8.19,4.12,0,0,0,0,1,1,15,33.4986975,-99.3329862,415,2026,5,24,16,29,40,0,0,0,0,0.9,0.5,0.8,0,27,0,0,27,33,0,0,31,0,29,35,0,0,0,0,0,0,27,0,21,0,0,33,20,0,0,0,26,0,0,0
6,16370,1,KJ5LDI,0.66,3,   boost,123.21,96762,386.95,20.46,81.14,35,4.12,4.12,4.13,132.26,0.5,-0.04,71.93,-15.66,15.59,0.62,-0.12,0.27,8.38,4.13,0,0,0,0,1,1,15,33.4986975,-99.3329862,415,2026,5,24,16,29,40,0,0,0,0,0.9,0.5,0.8,0,27,0,0,27,33,0,0,31,0,29,35,0,0,0,0,0,0,27,0,21,0,0,33,20,0,0,0,26,0,0,0
6,16370,1,KJ5LDI,0.66,3,   boost,123.21,96762,386.95,20.46,81.14,35,4.12,4.12,4.13,132.26,0.5,-0.04,71.93,-15.66,15.59,0.62,-0.12,0.27,8.38,4.13,0,0,0,0,1,1,15,33.4986975,-99.3329862,415,2026,5,24,16,29,40,0,0,0,0,0.9,0.5,0.8,0,27,0,0,27,33,0,0,31,0,29,35,0,0,0,0,0,0,27,0,21,0,0,33,20,0,0,0,26,0,0,0
6,16370,1,KJ5LDI,0.67,3,   boost,123.21,96762,386.95,20.46,82.37,35,4.12,4.12,4.13,132.53,0.99,0.6,71.99,-16.15,15.84,0.62,-0.12,0.27,8.58,4.13,0,0,0,0,1,1,15,33.4986975,-99.3329862,415,2026,5,24,16,29,40,0,0,0,0,0.9,0.5,0.8,0,27,0,0,27,33,0,0,31,0,29,35,0,0,0,0,0,0,27,0,21,0,0,33,20,0,0,0,26,0,0,0
6,16370,1,KJ5LDI,0.68,3,   boost,123.71,96749,388.08,21.58,83.59,35,4.12,4.12,4.13,132.55,1.84,1.29,72.54,-16.39,15.66,0.62,-0.12,0.28,8.77,4.13,0,0,0,0,1,1,15,33.4986975,-99.3329862,415,2026,5,24,16,29,40,0,0,0,0,0.9,0.5,0.8,0,27,0,0,27,33,0,0,31,0,29,35,0,0,0,0,0,0,27,0,21,0,0,33,20,0,0,0,26,0,0,0
6,16370,1,KJ5LDI,0.69,3,   boost,124.72,96749,388.08,21.58,84.81,35,4.12,4.12,4.13,132.83,2.33,1.58,73.4,-16.88,15.84,0.62,-0.12,0.28,8.98,4.13,0,0,0,0,1,1,15,33.4986975,-99.3329862,415,2026,5,24,16,29,40,0,0,0,0,0.9,0.5,0.8,0,27,0,0,27,33,0,0,31,0,29,35,0,0,0,0,0,0,27,0,21,0,0,33,20,0,0,0,26,0,0,0
6,16370,1,KJ5LDI,0.7,3,   boost,123.71,96733,389.46,22.96,86.04,35,4.12,4.12,4.13,133.03,2,0.85,73.95,-16.64,15.84,0.62,-0.11,0.28,9.18,4.13,0,0,0,0,1,1,15,33.4986975,-99.3329862,415,2026,5,24,16,29,40,0,0,0,0,0.9,0.5,0.8,0,27,0,0,27,33,0,0,31,0,29,35,0,0,0,0,0,0,27,0,21,0,0,33,20,0,0,0,26,0,0,0
6,16370,1,KJ5LDI,0.71,3,   boost,124.72,96733,389.46,22.96,87.26,35,4.12,4.12,4.13,133.19,1.21,-0.11,74.25,-17.06,15.9,0.62,-0.11,0.28,9.38,4.13,0,0,0,0,1,1,15,33.4986975,-99.3329862,415,2026,5,24,16,29,40,0,0,0,0,0.9,0.5,0.8,0,27,0,0,27,33,0,0,31,0,29,35,0,0,0,0,0,0,27,0,21,0,0,33,20,0,0,0,26,0,0,0
6,16370,1,KJ5LDI,0.72,3,   boost,124.72,96731,389.63,23.14,88.49,35,4.12,4.12,4.13,133.28,0.55,-0.76,74.37,-17.55,16.27,0.62,-0.11,0.29,9.59,4.13,0,0,0,0,1,1,15,33.4986975,-99.3329862,415,2026,5,24,16,29,40,0,0,0,0,0.9,0.5,0.8,0,27,0,0,27,33,0,0,31,0,29,35,0,0,0,0,0,0,27,0,21,0,0,33,20,0,0,0,26,0,0,0
6,16370,1,KJ5LDI,0.73,3,   boost,125.73,96731,389.63,23.14,89.73,35,4.12,4.12,4.13,133.35,0.59,-0.26,74.74,-17.67,16.2,0.62,-0.11,0.29,9.8,4.13,0,0,0,0,1,1,15,33.4986975,-99.3329862,415,2026,5,24,16,29,40,0,0,0,0,0.9,0.5,0.8,0,27,0,0,27,33,0,0,31,0,29,35,0,0,0,0,0,0,27,0,21,0,0,33,20,0,0,0,26,0,0,0
6,16370,1,KJ5LDI,0.74,3,   boost,125.73,96721,390.5,24,90.96,35,4.12,4.12,4.13,133.72,1.37,0.42,75.23,-18.1,16.69,0.62,-0.1,0.29,10.02,4.13,0,0,0,0,1,1,15,33.4986975,-99.3329862,415,2026,5,24,16,29,40,0,0,0,0,0.9,0.5,0.8,0,27,0,0,27,33,0,0,31,0,29,35,0,0,0,0,0,0,27,0,21,0,0,33,20,0,0,0,26,0,0,0
6,16370,1,KJ5LDI,0.75,3,   boost,126.73,96721,390.5,24,92.2,35,4.12,4.12,4.13,134.02,1.86,0.87,75.17,-17.67,16.45,0.62,-0.1,0.29,10.23,4.13,0,0,0,0,1,1,15,33.4986975,-99.3329862,415,2026,5,24,16,29,40,0,0,0,0,0.9,0.5,0.8,0,27,0,0,27,33,0,0,31,0,29,35,0,0,0,0,0,0,27,0,21,0,0,33,20,0,0,0,26,0,0,0
6,16370,1,KJ5LDI,0.76,3,   boost,126.73,96702,392.14,25.64,93.44,35,4.12,4.12,4.13,134.25,1.89,0.43,75.72,-18.1,16.51,0.61,-0.1,0.29,10.45,4.13,0,0,0,0,1,1,15,33.4986975,-99.3329862,415,2026,5,24,16,29,40,0,0,0,0,0.9,0.5,0.8,0,27,0,0,27,33,0,0,31,0,29,35,0,0,0,0,0,0,27,0,21,0,0,33,20,0,0,0,26,0,0,0
6,16370,1,KJ5LDI,0.77,3,   boost,125.73,96702,392.14,25.64,94.68,35,4.12,4.12,4.13,134.34,1.31,-0.54,76.08,-17.37,16.45,0.61,-0.1,0.3,10.66,4.13,0,0,0,0,1,1,15,33.4986975,-99.3329862,415,2026,5,24,16,29,40,0,0,0,0,0.9,0.5,0.8,0,27,0,0,27,33,0,0,31,0,29,35,0,0,0,0,0,0,27,0,21,0,0,33,20,0,0,0,26,0,0,0
6,16370,1,KJ5LDI,0.78,3,   boost,125.73,96687,393.44,26.94,95.91,35,4.12,4.12,4.13,134.63,0.63,-1.34,76.27,-17.73,16.51,0.61,-0.1,0.3,10.87,4.13,0,0,0,0,1,1,15,33.4986975,-99.3329862,415,2026,5,24,16,29,40,0,0,0,0,0.9,0.5,0.8,0,27,0,0,27,33,0,0,31,0,29,35,0,0,0,0,0,0,27,0,21,0,0,33,20,0,0,0,26,0,0,0
6,16370,1,KJ5LDI,0.79,3,   boost,126.23,96687,393.44,26.94,97.15,35,4.12,4.12,4.13,134.48,0.37,-1.17,76.63,-17.73,16.75,0.61,-0.09,0.3,11.08,4.13,0,0,0,0,1,1,15,33.4986975,-99.3329862,415,2026,5,24,16,29,40,0,0,0,0,0.9,0.5,0.8,0,27,0,0,27,33,0,0,31,0,29,35,0,0,0,0,0,0,27,0,21,0,0,33,20,0,0,0,26,0,0,0
6,16370,1,KJ5LDI,0.8,3,   boost,125.22,96671,394.82,28.32,98.39,35,4.12,4.12,4.13,134.58,0.85,-0.66,76.57,-17.86,16.69,0.61,-0.09,0.3,11.29,4.13,0,0,0,0,1,1,15,33.4986975,-99.3329862,415,2026,5,24,16,29,40,0,0,0,0,0.9,0.5,0.8,0,27,0,0,27,33,0,0,31,0,29,35,0,0,0,0,0,0,27,0,21,0,0,33,20,0,0,0,26,0,0,0
6,16370,1,KJ5LDI,0.81,3,   boost,126.73,96671,394.82,28.32,99.62,35,4.12,4.12,4.13,134.69,1.27,-0.05,77.24,-17.73,16.82,0.61,-0.09,0.31,11.5,4.13,0,0,0,0,1,1,15,33.4986975,-99.3329862,415,2026,5,24,16,29,40,0,0,0,0,0.9,0.5,0.8,0,27,0,0,27,33,0,0,31,0,29,35,0,0,0,0,0,0,27,0,21,0,0,33,20,0,0,0,26,0,0,0
6,16370,1,KJ5LDI,0.82,3,   boost,128.74,96668,395.08,28.58,100.86,35,4.12,4.12,4.13,134.94,1.54,-0.58,77.61,-17.06,16.69,0.61,-0.09,0.31,11.71,4.13,0,0,0,0,1,1,15,33.4986975,-99.3329862,415,2026,5,24,16,29,40,0,0,0,0,0.9,0.5,0.8,0,27,0,0,27,33,0,0,31,0,29,35,0,0,0,0,0,0,27,0,21,0,0,33,20,0,0,0,26,0,0,0
6,16370,1,KJ5LDI,0.83,3,   boost,126.23,96668,395.08,28.58,102.1,35,4.12,4.12,4.13,135.25,1.24,-1.11,77.79,-16.94,16.57,0.61,-0.08,0.31,11.91,4.13,0,0,0,0,1,1,15,33.4986975,-99.3329862,415,2026,5,24,16,29,40,0,0,0,0,0.9,0.5,0.8,0,27,0,0,27,33,0,0,31,0,29,35,0,0,0,0,0,0,27,0,21,0,0,33,20,0,0,0,26,0,0,0
6,16370,1,KJ5LDI,0.84,3,   boost,126.23,96648,396.81,30.31,103.35,35,4.12,4.12,4.13,135.5,0.61,-2.22,77.55,-17.06,16.88,0.61,-0.08,0.31,12.11,4.13,0,0,0,0,1,1,15,33.4986975,-99.3329862,415,2026,5,24,16,29,40,0,0,0,0,0.9,0.5,0.8,0,27,0,0,27,33,0,0,31,0,29,35,0,0,0,0,0,0,27,0,21,0,0,33,20,0,0,0,26,0,0,0
6,16370,1,KJ5LDI,0.85,3,   boost,127.74,96648,396.81,30.31,104.59,35,4.12,4.12,4.13,135.52,0.3,-2.1,77.06,-16.82,16.69,0.6,-0.08,0.31,12.31,4.13,0,0,0,0,1,1,15,33.4986975,-99.3329862,415,2026,5,24,16,29,40,0,0,0,0,0.9,0.5,0.8,0,27,0,0,27,33,0,0,31,0,29,35,0,0,0,0,0,0,27,0,21,0,0,33,20,0,0,0,26,0,0,0
6,16370,1,KJ5LDI,0.86,3,   boost,128.74,96638,397.67,31.18,105.83,35,4.12,4.12,4.13,135.7,0.7,-1.82,76.51,-17.25,16.63,0.6,-0.08,0.31,12.52,4.13,0,0,0,0,1,1,15,33.4986975,-99.3329862,415,2026,5,24,16,29,40,0,0,0,0,0.9,0.5,0.8,0,27,0,0,27,33,0,0,31,0,29,35,0,0,0,0,0,0,27,0,21,0,0,33,20,0,0,0,26,0,0,0
6,16370,1,KJ5LDI,0.87,3,   boost,126.73,96638,397.67,31.18,107.07,35,4.12,4.12,4.13,135.88,0.9,-1.16,76.39,-16.45,16.88,0.6,-0.07,0.32,12.71,4.13,0,0,0,0,1,1,15,33.4986975,-99.3329862,415,2026,5,24,16,29,40,0,0,0,0,0.9,0.5,0.8,0,27,0,0,27,33,0,0,31,0,29,35,0,0,0,0,0,0,27,0,21,0,0,33,20,0,0,0,26,0,0,0
6,16370,1,KJ5LDI,0.88,3,   boost,126.23,96623,398.97,32.48,108.31,35,4.12,4.12,4.13,136.32,0.93,-1.57,76.02,-15.96,16.75,0.6,-0.07,0.32,12.9,4.13,0,0,0,0,1,1,15,33.4986975,-99.3329862,415,2026,5,24,16,29,40,0,0,0,0,0.9,0.5,0.8,0,27,0,0,27,33,0,0,31,0,29,35,0,0,0,0,0,0,27,0,21,0,0,33,20,0,0,0,26,0,0,0
6,16370,1,KJ5LDI,0.89,3,   boost,126.73,96623,398.97,32.48,109.54,35,4.12,4.12,4.13,136.04,0.56,-2.48,76.39,-15.54,16.88,0.6,-0.07,0.32,13.09,4.13,0,0,0,0,1,1,15,33.4986975,-99.3329862,415,2026,5,24,16,29,40,0,0,0,0,0.9,0.5,0.8,0,27,0,0,27,33,0,0,31,0,29,35,0,0,0,0,0,0,27,0,21,0,0,33,20,0,0,0,26,0,0,0
6,16370,1,KJ5LDI,0.9,3,   boost,128.24,96597,401.22,34.73,110.78,35,4.12,4.12,4.13,136.44,0.21,-3.16,75.35,-15.23,16.94,0.6,-0.07,0.32,13.27,4.13,0,0,0,0,1,1,15,33.4986975,-99.3329862,415,2026,5,24,16,29,40,0,0,0,0,0.9,0.5,0.8,0,27,0,0,27,33,0,0,31,0,29,35,0,0,0,0,0,0,27,0,21,0,0,33,20,0,0,0,26,0,0,0
6,16370,1,KJ5LDI,0.91,3,   boost,128.24,96597,401.22,34.73,112.02,35,4.12,4.12,4.13,136.74,-0.22,-4.02,74.31,-15.05,16.63,0.6,-0.06,0.32,13.46,4.13,0,0,0,0,1,1,15,33.4986975,-99.3329862,415,2026,5,24,16,29,40,0,0,0,0,0.9,0.5,0.8,0,27,0,0,27,33,0,0,31,0,29,35,0,0,0,0,0,0,27,0,21,0,0,33,20,0,0,0,26,0,0,0
6,16370,1,KJ5LDI,0.92,3,   boost,127.74,96588,402,35.5,113.26,35,4.12,4.12,4.13,137.14,-0.03,-3.1,74.19,-14.99,16.63,0.6,-0.06,0.33,13.63,4.13,0,0,0,0,1,1,15,33.4986975,-99.3329862,415,2026,5,24,16,29,40,0,0,0,0,0.9,0.5,0.8,0,27,0,0,27,33,0,0,31,0,29,35,0,0,0,0,0,0,27,0,21,0,0,33,20,0,0,0,26,0,0,0
6,16370,1,KJ5LDI,0.93,3,   boost,127.74,96588,402,35.5,114.5,35,4.12,4.12,4.13,137.13,-0.07,-2.78,74.31,-13.77,16.63,0.6,-0.06,0.33,13.8,4.13,0,0,0,0,1,1,15,33.4986975,-99.3329862,415,2026,5,24,16,29,40,0,0,0,0,0.9,0.5,0.8,0,27,0,0,27,33,0,0,31,0,29,35,0,0,0,0,0,0,27,0,21,0,0,33,20,0,0,0,26,0,0,0
6,16370,1,KJ5LDI,0.94,3,   boost,128.74,96568,403.73,37.23,115.75,35,4.12,4.12,4.13,137.21,0.13,-2.39,75.66,-12.79,16.63,0.6,-0.06,0.33,13.96,4.13,0,0,0,0,1,1,15,33.4986975,-99.3329862,415,2026,5,24,16,29,40,0,0,0,0,0.9,0.5,0.8,0,27,0,0,27,33,0,0,31,0,29,35,0,0,0,0,0,0,27,0,21,0,0,33,20,0,0,0,26,0,0,0
6,16370,1,KJ5LDI,0.95,3,   boost,128.74,96568,403.73,37.23,116.99,35,4.12,4.12,4.13,137.29,0.26,-3.22,73.76,-11.87,16.75,0.59,-0.05,0.33,14.11,4.13,0,0,0,0,1,1,15,33.4986975,-99.3329862,415,2026,5,24,16,29,40,0,0,0,0,0.9,0.5,0.8,0,27,0,0,27,33,0,0,31,0,29,35,0,0,0,0,0,0,27,0,21,0,0,33,20,0,0,0,26,0,0,0
6,16370,1,KJ5LDI,0.96,3,   boost,128.74,96559,404.51,38.01,118.23,35,4.12,4.12,4.13,137.36,0,-4.41,73.95,-12.06,16.57,0.59,-0.05,0.33,14.26,4.13,0,0,0,0,1,1,15,33.4986975,-99.3329862,415,2026,5,24,16,29,40,0,0,0,0,0.9,0.5,0.8,0,27,0,0,27,33,0,0,31,0,29,35,0,0,0,0,0,0,27,0,21,0,0,33,20,0,0,0,26,0,0,0
6,16370,1,KJ5LDI,0.97,3,   boost,128.74,96559,404.51,38.01,119.47,35,4.12,4.12,4.13,137.34,-0.41,-4.35,73.52,-11.02,16.51,0.59,-0.05,0.33,14.39,4.13,0,0,0,0,1,1,15,33.4986975,-99.3329862,415,2026,5,24,16,29,40,0,0,0,0,0.9,0.5,0.8,0,27,0,0,27,33,0,0,31,0,29,35,0,0,0,0,0,0,27,0,21,0,0,33,20,0,0,0,26,0,0,0
6,16370,1,KJ5LDI,0.98,3,   boost,127.74,96530,407.02,40.52,120.71,35,4.14,4.13,4.12,137.49,-0.27,-4.81,72.79,-10.41,16.27,0.59,-0.04,0.33,14.53,4.13,0,0,0,0,1,1,15,33.4986975,-99.3329862,415,2026,5,24,16,29,40,0,0,0,0,0.9,0.5,0.8,0,27,0,0,27,33,0,0,31,0,29,35,0,0,0,0,0,0,27,0,21,0,0,33,20,0,0,0,26,0,0,0
6,16370,1,KJ5LDI,0.98,3,   boost,127.74,96530,407.02,40.52,120.71,35,4.14,4.13,4.12,137.49,-0.27,-4.81,72.79,-10.41,16.27,0.59,-0.04,0.33,14.53,4.13,0,0,0,0,1,1,15,33.4986975,-99.3329862,415,2026,5,24,16,29,40,0,0,0,0,0.9,0.5,0.8,0,27,0,0,27,33,0,0,31,0,29,35,0,0,0,0,0,0,27,0,21,0,0,33,20,0,0,0,26,0,0,0
6,16370,1,KJ5LDI,0.98,3,   boost,127.74,96530,407.02,40.52,120.71,35,4.14,4.13,4.12,137.49,-0.27,-4.81,72.79,-10.41,16.27,0.59,-0.04,0.33,14.53,4.13,0,0,0,0,1,1,15,33.4986975,-99.3329862,415,2026,5,24,16,29,40,0,0,0,0,0.9,0.5,0.8,0,27,0,0,27,33,0,0,31,0,29,35,0,0,0,0,0,0,27,0,21,0,0,33,20,0,0,0,26,0,0,0
6,16370,1,KJ5LDI,0.99,3,   boost,128.24,96530,407.02,40.52,121.95,35,4.14,4.13,4.12,137.55,-0.6,-3.74,73.21,-9.25,16.88,0.59,-0.04,0.33,14.65,4.13,0,0,0,0,1,1,15,33.4986975,-99.3329862,415,2026,5,24,16,29,40,0,0,0,0,0.9,0.5,0.8,0,32,0,0,10,28,0,0,34,0,18,22,0,0,0,0,0,0,23,0,19,0,0,27,18,0,0,0,24,0,0,0
6,16370,1,KJ5LDI,1,3,   boost,127.23,96517,408.15,41.65,123.19,35,4.14,4.13,4.12,137.71,-0.72,-3.81,73.82,-8.58,16.63,0.59,-0.04,0.33,14.76,4.13,0,0,0,0,1,1,15,33.4986975,-99.3329862,415,2026,5,24,16,29,40,0,0,0,0,0.9,0.5,0.8,0,32,0,0,10,28,0,0,34,0,18,22,0,0,0,0,0,0,23,0,19,0,0,27,18,0,0,0,24,0,0,0
6,16370,1,KJ5LDI,1.01,3,   boost,129.75,96517,408.15,41.65,124.43,35,4.14,4.13,4.12,137.73,0.42,-4.11,72.91,-7.36,16.57,0.59,-0.04,0.33,14.86,4.13,0,0,0,0,1,1,15,33.4986975,-99.3329862,415,2026,5,24,16,29,40,0,0,0,0,0.9,0.5,0.8,0,32,0,0,10,28,0,0,34,0,18,22,0,0,0,0,0,0,23,0,19,0,0,27,18,0,0,0,24,0,0,0
6,16370,1,KJ5LDI,1.02,3,   boost,129.25,96504,409.27,42.78,125.67,35,4.14,4.13,4.12,137.34,-0.53,-4.89,72.66,-6.75,16.45,0.59,-0.03,0.33,14.95,4.13,0,0,0,0,1,1,15,33.4986975,-99.3329862,415,2026,5,24,16,29,40,0,0,0,0,0.9,0.5,0.8,0,32,0,0,10,28,0,0,34,0,18,22,0,0,0,0,0,0,23,0,19,0,0,27,18,0,0,0,24,0,0,0
6,16370,1,KJ5LDI,1.03,3,   boost,128.74,96504,409.27,42.78,126.91,35,4.14,4.13,4.12,137.55,-0.3,-5.14,73.4,-6.01,16.88,0.59,-0.03,0.33,15.04,4.13,0,0,0,0,1,1,15,33.4986975,-99.3329862,415,2026,5,24,16,29,40,0,0,0,0,0.9,0.5,0.8,0,32,0,0,10,28,0,0,34,0,18,22,0,0,0,0,0,0,23,0,19,0,0,27,18,0,0,0,24,0,0,0
6,16370,1,KJ5LDI,1.04,3,   boost,129.25,96490,410.48,43.99,128.16,35,4.14,4.13,4.12,137.83,-1.31,-5.04,75.04,-4.73,16.75,0.59,-0.03,0.33,15.11,4.13,0,0,0,0,1,1,15,33.4986975,-99.3329862,415,2026,5,24,16,29,40,0,0,0,0,0.9,0.5,0.8,0,32,0,0,10,28,0,0,34,0,18,22,0,0,0,0,0,0,23,0,19,0,0,27,18,0,0,0,24,0,0,0
6,16370,1,KJ5LDI,1.05,3,   boost,130.25,96490,410.48,43.99,129.4,35,4.14,4.13,4.12,137.93,-0.64,-5.06,73.7,-3.88,16.94,0.59,-0.03,0.33,15.18,4.13,0,0,0,0,1,1,15,33.4986975,-99.3329862,415,2026,5,24,16,29,40,0,0,0,0,0.9,0.5,0.8,0,32,0,0,10,28,0,0,34,0,18,22,0,0,0,0,0,0,23,0,19,0,0,27,18,0,0,0,24,0,0,0
6,16370,1,KJ5LDI,1.06,3,   boost,128.24,96477,411.61,45.11,130.64,35,4.14,4.13,4.12,137.93,-1,-4.55,72.6,-2.84,16.69,0.59,-0.02,0.33,15.23,4.13,0,0,0,0,1,1,15,33.4986975,-99.3329862,415,2026,5,24,16,29,40,0,0,0,0,0.9,0.5,0.8,0,32,0,0,10,28,0,0,34,0,18,22,0,0,0,0,0,0,23,0,19,0,0,27,18,0,0,0,24,0,0,0
6,16370,1,KJ5LDI,1.07,3,   boost,127.74,96477,411.61,45.11,131.88,35,4.14,4.13,4.12,137.97,-0.5,-5.05,73.03,-1.74,16.39,0.59,-0.02,0.33,15.27,4.13,0,0,0,0,1,1,15,33.4986975,-99.3329862,415,2026,5,24,16,29,40,0,0,0,0,0.9,0.5,0.8,0,32,0,0,10,28,0,0,34,0,18,22,0,0,0,0,0,0,23,0,19,0,0,27,18,0,0,0,24,0,0,0
6,16370,1,KJ5LDI,1.08,3,   boost,128.74,96461,412.99,46.5,133.12,35,4.14,4.13,4.12,138.04,-0.79,-5.52,74.31,-1.19,16.57,0.59,-0.02,0.33,15.31,4.13,0,0,0,0,1,1,15,33.4986975,-99.3329862,415,2026,5,24,16,29,40,0,0,0,0,0.9,0.5,0.8,0,32,0,0,10,28,0,0,34,0,18,22,0,0,0,0,0,0,23,0,19,0,0,27,18,0,0,0,24,0,0,0
6,16370,1,KJ5LDI,1.09,3,   boost,128.74,96461,412.99,46.5,134.35,35,4.14,4.13,4.12,138.03,-1.21,-5.68,75.78,0.27,16.45,0.59,-0.01,0.33,15.33,4.13,0,0,0,0,1,1,15,33.4986975,-99.3329862,415,2026,5,24,16,29,40,0,0,0,0,0.9,0.5,0.8,0,32,0,0,10,28,0,0,34,0,18,22,0,0,0,0,0,0,23,0,19,0,0,27,18,0,0,0,24,0,0,0
6,16370,1,KJ5LDI,1.1,3,   boost,128.24,96455,413.51,47.02,135.59,35,4.14,4.13,4.12,138.03,-1.14,-5.94,77.18,1.13,16.57,0.59,-0.01,0.34,15.35,4.13,0,0,0,0,1,1,15,33.4986975,-99.3329862,415,2026,5,24,16,29,40,0,0,0,0,0.9,0.5,0.8,0,32,0,0,10,28,0,0,34,0,18,22,0,0,0,0,0,0,23,0,19,0,0,27,18,0,0,0,24,0,0,0
6,16370,1,KJ5LDI,1.11,3,   boost,129.75,96455,413.51,47.02,136.83,35,4.14,4.13,4.12,138.14,-1.52,-5.85,77.73,2.22,16.57,0.59,-0.01,0.34,15.35,4.13,0,0,0,0,1,1,15,33.4986975,-99.3329862,415,2026,5,24,16,29,40,0,0,0,0,0.9,0.5,0.8,0,32,0,0,10,28,0,0,34,0,18,22,0,0,0,0,0,0,23,0,19,0,0,27,18,0,0,0,24,0,0,0
6,16370,1,KJ5LDI,1.12,3,   boost,128.24,96441,414.73,48.23,138.07,35,4.14,4.13,4.12,138.19,-1.62,-5.29,77.49,3.75,16.51,0.59,0,0.33,15.33,4.13,0,0,0,0,1,1,15,33.4986975,-99.3329862,415,2026,5,24,16,29,40,0,0,0,0,0.9,0.5,0.8,0,32,0,0,10,28,0,0,34,0,18,22,0,0,0,0,0,0,23,0,19,0,0,27,18,0,0,0,24,0,0,0
6,16370,1,KJ5LDI,1.13,3,   boost,129.75,96441,414.73,48.23,139.31,35,4.14,4.13,4.12,138.03,-1.16,-5.7,76.33,4.97,17.12,0.59,0,0.33,15.31,4.13,0,0,0,0,1,1,15,33.4986975,-99.3329862,415,2026,5,24,16,29,40,0,0,0,0,0.9,0.5,0.8,0,32,0,0,10,28,0,0,34,0,18,22,0,0,0,0,0,0,23,0,19,0,0,27,18,0,0,0,24,0,0,0
6,16370,1,KJ5LDI,1.14,3,   boost,128.24,96411,417.33,50.83,140.55,35,4.14,4.13,4.12,138.09,-1.39,-5.63,76.63,6.19,16.27,0.59,0,0.33,15.27,4.13,0,0,0,0,1,1,15,33.4986975,-99.3329862,415,2026,5,24,16,29,40,0,0,0,0,0.9,0.5,0.8,0,32,0,0,10,28,0,0,34,0,18,22,0,0,0,0,0,0,23,0,19,0,0,27,18,0,0,0,24,0,0,0
6,16370,1,KJ5LDI,1.15,3,   boost,130.25,96411,417.33,50.83,141.79,35,4.14,4.13,4.12,137.96,-1.8,-5.83,77.18,7.17,16.57,0.59,0,0.33,15.22,4.13,0,0,0,0,1,1,15,33.4986975,-99.3329862,415,2026,5,24,16,29,40,0,0,0,0,0.9,0.5,0.8,0,32,0,0,10,28,0,0,34,0,18,22,0,0,0,0,0,0,23,0,19,0,0,27,18,0,0,0,24,0,0,0
6,16370,1,KJ5LDI,1.16,3,   boost,128.74,96399,418.37,51.87,143.03,35,4.14,4.13,4.12,138.16,-2.08,-5.64,78.58,8.57,16.57,0.59,0.01,0.33,15.16,4.13,0,0,0,0,1,1,15,33.4986975,-99.3329862,415,2026,5,24,16,29,40,0,0,0,0,0.9,0.5,0.8,0,32,0,0,10,28,0,0,34,0,18,22,0,0,0,0,0,0,23,0,19,0,0,27,18,0,0,0,24,0,0,0
6,16370,1,KJ5LDI,1.17,3,   boost,128.24,96399,418.37,51.87,144.27,35,4.14,4.13,4.12,138.11,-2.04,-5.7,78.46,9.24,17.18,0.59,0.01,0.33,15.09,4.13,0,0,0,0,1,1,15,33.4986975,-99.3329862,415,2026,5,24,16,29,40,0,0,0,0,0.9,0.5,0.8,0,32,0,0,10,28,0,0,34,0,18,22,0,0,0,0,0,0,23,0,19,0,0,27,18,0,0,0,24,0,0,0
6,16370,1,KJ5LDI,1.18,3,   boost,127.74,96379,420.1,53.61,145.51,35,4.14,4.13,4.12,137.98,-2.16,-5.58,79.99,10.28,16.82,0.59,0.01,0.33,15,4.13,0,0,0,0,1,1,15,33.4986975,-99.3329862,415,2026,5,24,16,29,40,0,0,0,0,0.9,0.5,0.8,0,32,0,0,10,28,0,0,34,0,18,22,0,0,0,0,0,0,23,0,19,0,0,27,18,0,0,0,24,0,0,0
6,16370,1,KJ5LDI,1.19,3,   boost,128.24,96379,420.1,53.61,146.75,35,4.14,4.13,4.12,137.87,-1.84,-5.5,79.13,11.44,16.69,0.6,0.02,0.33,14.91,4.13,0,0,0,0,1,1,15,33.4986975,-99.3329862,415,2026,5,24,16,29,40,0,0,0,0,0.9,0.5,0.8,0,32,0,0,10,28,0,0,34,0,18,22,0,0,0,0,0,0,23,0,19,0,0,27,18,0,0,0,24,0,0,0
6,16370,1,KJ5LDI,1.2,3,   boost,128.24,96377,420.27,53.78,147.98,35,4.14,4.13,4.12,137.82,-2.41,-5.19,78.95,12.72,16.69,0.6,0.02,0.33,14.81,4.13,0,0,0,0,1,1,15,33.4986975,-99.3329862,415,2026,5,24,16,29,40,0,0,0,0,0.9,0.5,0.8,0,32,0,0,10,28,0,0,34,0,18,22,0,0,0,0,0,0,23,0,19,0,0,27,18,0,0,0,24,0,0,0
6,16370,1,KJ5LDI,1.21,3,   boost,128.24,96377,420.27,53.78,149.22,35,4.14,4.13,4.12,137.67,-2.43,-5.57,79.2,13.76,16.69,0.6,0.02,0.32,14.69,4.13,0,0,0,0,1,1,15,33.4986975,-99.3329862,415,2026,5,24,16,29,40,0,0,0,0,0.9,0.5,0.8,0,32,0,0,10,28,0,0,34,0,18,22,0,0,0,0,0,0,23,0,19,0,0,27,18,0,0,0,24,0,0,0
6,16370,1,KJ5LDI,1.22,3,   boost,128.24,96363,421.49,54.99,150.45,35,4.14,4.13,4.12,137.3,-3.3,-4.55,80.05,14.19,16.69,0.6,0.02,0.32,14.57,4.13,0,0,0,0,1,1,15,33.4986975,-99.3329862,415,2026,5,24,16,29,40,0,0,0,0,0.9,0.5,0.8,0,32,0,0,10,28,0,0,34,0,18,22,0,0,0,0,0,0,23,0,19,0,0,27,18,0,0,0,24,0,0,0
6,16370,1,KJ5LDI,1.23,3,   boost,128.24,96363,421.49,54.99,151.69,35,4.14,4.13,4.12,137.39,-2.77,-5.23,80.48,15.1,16.39,0.59,0.03,0.32,14.44,4.13,0,0,0,0,1,1,15,33.4986975,-99.3329862,415,2026,5,24,16,29,40,0,0,0,0,0.9,0.5,0.8,0,32,0,0,10,28,0,0,34,0,18,22,0,0,0,0,0,0,23,0,19,0,0,27,18,0,0,0,24,0,0,0
6,16370,1,KJ5LDI,1.24,3,   boost,127.23,96346,422.96,56.47,152.93,35,4.14,4.13,4.12,137.27,-3.1,-5.02,81.27,16.63,16.14,0.6,0.03,0.32,14.29,4.13,0,0,0,0,1,1,15,33.4986975,-99.3329862,415,2026,5,24,16,29,40,0,0,0,0,0.9,0.5,0.8,0,32,0,0,10,28,0,0,34,0,18,22,0,0,0,0,0,0,23,0,19,0,0,27,18,0,0,0,24,0,0,0
6,16370,1,KJ5LDI,1.25,3,   boost,128.74,96346,422.96,56.47,154.16,35,4.14,4.13,4.12,136.91,-3.05,-4.59,82.67,17.24,15.96,0.6,0.04,0.32,14.14,4.13,0,0,0,0,1,1,15,33.4986975,-99.3329862,415,2026,5,24,16,29,40,0,0,0,0,0.9,0.5,0.8,0,32,0,0,10,28,0,0,34,0,18,22,0,0,0,0,0,0,23,0,19,0,0,27,18,0,0,0,24,0,0,0
6,16370,1,KJ5LDI,1.26,3,   boost,126.23,96346,422.96,56.47,155.39,35,4.14,4.13,4.12,136.85,-3.38,-4.4,84.63,18.03,15.78,0.6,0.04,0.32,13.98,4.13,0,0,0,0,1,1,15,33.4986975,-99.3329862,415,2026,5,24,16,29,40,0,0,0,0,0.9,0.5,0.8,0,32,0,0,10,28,0,0,34,0,18,22,0,0,0,0,0,0,23,0,19,0,0,27,18,0,0,0,24,0,0,0
